OBJECTID *,Field1,CountryNum,StateNum,Route,RouteName,Active,Latitude,Longitude,Stratum,BCR,RouteTypeID,RouteTypeDetailID,RouteID,Shape *
1,469,840,6,1,MT TRUMBULL,0,36.411816,-113.325317,87,16,1,1,6001,Point
2,470,840,6,2,HOUSE ROCK,1,36.731395,-112.046051,87,16,1,1,6002,Point
3,471,840,6,3,THE GAP,0,36.162354,-111.386582,87,16,1,1,6003,Point
4,472,840,6,4,BLACK MESA,1,36.561287,-110.501946,84,16,1,1,6004,Point
5,473,840,6,5,ROUND ROCK,0,36.508927,-109.472686,84,16,1,1,6005,Point
6,475,840,6,7,YAMPAI,0,35.515618,-113.201668,87,16,1,1,6007,Point
7,476,840,6,8,ROSE WELLS,0,35.754907,-112.872192,87,16,1,1,6008,Point
8,477,840,6,9,FLAGSTAFF,1,35.395062,-111.577781,84,34,1,1,6009,Point
9,478,840,6,10,ORAIBI,1,35.86872,-110.62304,87,16,1,1,6010,Point
10,479,840,6,11,SAWMILL,1,35.678979,-109.204621,84,16,1,1,6011,Point
11,482,840,6,14,PRESCOTT,1,34.643638,-112.43804,84,34,1,1,6014,Point
12,483,840,6,15,MORMON LAKE,0,34.849205,-111.43425,84,34,1,1,6015,Point
13,484,840,6,16,ZENIFF,0,34.667367,-110.323014,87,16,1,1,6016,Point
14,502,840,6,51,TOROWEAP,1,36.28638,-113.064987,87,16,1,1,6051,Point
15,503,840,6,52,DRY PARK,1,36.313148,-112.031972,84,16,1,1,6052,Point
16,504,840,6,53,PAGE,1,36.913228,-111.4527,87,16,1,1,6053,Point
17,505,840,6,54,COW SPRINGS,1,36.391564,-110.879432,87,16,1,1,6054,Point
18,506,840,6,55,MANY FARMS,1,36.359924,-109.643791,87,16,1,1,6055,Point
19,509,840,6,58,WILLIAMS,1,35.055633,-112.218834,84,34,1,1,6058,Point
20,510,840,6,59,MAINE,1,35.163411,-111.947586,84,34,1,1,6059,Point
21,511,840,6,60,CASTLE BUTTE,1,35.277982,-110.379899,87,16,1,1,6060,Point
22,512,840,6,61,GREASEWOOD,0,35.530235,-109.851609,87,16,1,1,6061,Point
23,514,840,6,64,SKULL VALLEY,1,34.773373,-112.619227,87,34,1,1,6064,Point
24,516,840,6,66,FOREST LAKES,1,34.7,-110.766667,84,34,1,1,6066,Point
25,534,840,6,101,NAVAJO TRAIL,1,36.690102,-113.458786,87,16,1,1,6101,Point
26,535,840,6,103,KAIBITO,1,36.609547,-111.076866,87,16,1,1,6103,Point
27,536,840,6,105,TSAILE,1,36.301969,-109.196587,84,16,1,1,6105,Point
28,538,840,6,107,PEACH SPRING,1,35.554156,-113.376017,87,16,1,1,6107,Point
29,539,840,6,108,SELIGMAN,1,35.230796,-112.585968,87,16,1,1,6108,Point
30,540,840,6,115,HAPPY JACK,1,34.837996,-111.438286,84,34,1,1,6115,Point
31,541,840,6,116,CLAY SPRING,1,34.611618,-110.378168,84,34,1,1,6116,Point
32,550,840,6,161,KLAGETOH,1,35.541305,-109.323218,87,16,1,1,6161,Point
33,806,840,14,3,NUBIEBER,1,41.101407,-121.257131,85,9,1,1,14003,Point
34,810,840,14,7,RED BLUFF,1,40.352016,-122.305965,92,32,1,1,14007,Point
35,811,840,14,8,LASSEN PARK,0,40.494113,-121.425529,66,15,1,1,14008,Point
36,812,840,14,9,EAGLE LAKE,1,40.5759,-120.69828,85,15,1,1,14009,Point
37,816,840,14,13,WESTVILLE,1,39.123969,-120.75962,66,15,1,1,14013,Point
38,820,840,14,17,COTTAGE SPGS,0,38.356345,-120.212166,66,15,1,1,14017,Point
39,821,840,14,18,DARDANELLE,1,38.343239,-119.836258,66,15,1,1,14018,Point
40,825,840,14,22,BASS LAKE,1,37.367086,-119.630211,92,15,1,1,14022,Point
41,826,840,14,23,BIG PINE,1,37.172092,-118.022002,88,9,1,1,14023,Point
42,832,840,14,29,UBEHEBE,1,36.712668,-117.573792,80,33,1,1,14029,Point
43,833,840,14,30,HAIWEE RES,1,36.155872,-117.885948,80,33,1,1,14030,Point
44,834,840,14,31,WILDROSE,1,36.538175,-117.213837,80,33,1,1,14031,Point
45,836,840,14,33,BAKERSFIELD,1,35.180061,-119.163902,91,32,1,1,14033,Point
46,837,840,14,34,ONYX,1,35.73357,-118.078003,90,33,1,1,14034,Point
47,838,840,14,35,CALIF CITY,1,35.087791,-117.917229,83,33,1,1,14035,Point
48,839,840,14,36,GOLDSTONE,0,35.301766,-116.915855,83,33,1,1,14036,Point
49,840,840,14,37,VALLEY WELLS,1,35.473722,-115.702905,83,33,1,1,14037,Point
50,842,840,14,39,FOSTER PARK,0,34.357132,-119.314255,92,32,1,1,14039,Point
51,843,840,14,40,WILLOW SPGS,0,34.840459,-118.563561,83,33,1,1,14040,Point
52,844,840,14,41,BARSTOW,1,34.62363,-117.004875,83,33,1,1,14041,Point
53,845,840,14,42,MT PINOS,0,34.83395,-119.332031,95,32,1,1,14042,Point
54,848,840,14,45,HARBOR LAKE,0,33.790921,-118.291809,90,32,1,1,14045,Point
55,859,840,14,56,DARWIN,1,36.318097,-117.67173,80,33,1,1,14056,Point
56,861,840,14,58,EUREKA VAL,1,37.22675,-117.76117,80,33,1,1,14058,Point
57,862,840,14,59,INYOKERN,1,35.607692,-117.800197,83,33,1,1,14059,Point
58,863,840,14,60,LENWOOD,0,34.850822,-117.146981,83,33,1,1,14060,Point
59,864,840,14,61,LANE MTN,0,35.026372,-116.961533,83,33,1,1,14061,Point
60,865,840,14,62,IVANPAH,1,35.540803,-115.428918,83,33,1,1,14062,Point
61,866,840,14,63,TRONA,1,35.818032,-117.342044,83,33,1,1,14063,Point
62,867,840,14,64,TECOPA,1,35.804043,-116.193081,83,33,1,1,14064,Point
63,868,840,14,65,SODA LAKE,1,35.109144,-116.143841,83,33,1,1,14065,Point
64,869,840,14,66,BIG BEAR,0,34.333386,-116.828957,95,32,1,1,14066,Point
65,871,840,14,68,FLYNN,1,34.975527,-115.646744,83,33,1,1,14068,Point
66,875,840,14,72,AUBURN,0,38.899274,-121.070336,92,32,1,1,14072,Point
67,876,840,14,73,INGALLS,1,41.679699,-120.712822,85,9,1,1,14073,Point
68,879,840,14,76,RAVENDALE,1,40.799955,-120.364626,89,9,1,1,14076,Point
69,880,840,14,77,SHASTA LAKE,1,40.873751,-122.291958,92,5,1,1,14077,Point
70,881,840,14,78,JOHNSVILLE,1,39.784654,-120.632668,66,15,1,1,14078,Point
71,882,840,14,79,COHASSET,1,39.993529,-121.704424,92,32,1,1,14079,Point
72,885,840,14,82,WOODFORDS,1,38.775461,-119.823738,66,15,1,1,14082,Point
73,887,840,14,84,BENTON,1,37.800222,-118.529617,88,9,1,1,14084,Point
74,888,840,14,85,LUCERNE VAL,1,34.458454,-116.945503,83,33,1,1,14085,Point
75,897,840,14,94,FT IRWIN,1,34.999517,-116.936364,83,33,1,1,14094,Point
76,898,840,14,95,LUMBERYARD,1,38.556259,-120.290699,66,15,1,1,14095,Point
77,899,840,14,96,BODIE,1,38.175217,-119.194305,88,9,1,1,14096,Point
78,900,840,14,97,ONO,1,40.516491,-122.38193,92,32,1,1,14097,Point
79,901,840,14,98,FOLSOM,1,38.720225,-121.03569,92,32,1,1,14098,Point
80,904,840,14,103,SAWMILL MTN,1,34.567532,-118.55729,92,32,1,1,14103,Point
81,905,840,14,104,TUJUNGA,1,34.25814,-118.10496,95,32,1,1,14104,Point
82,911,840,14,110,GREENHORN MT,1,35.778656,-118.569985,92,15,1,1,14110,Point
83,912,840,14,111,VALYERMO,1,34.386389,-117.69055,95,32,1,1,14111,Point
84,913,840,14,112,PEARBLOSSOM,1,34.52088,-117.940616,90,33,1,1,14112,Point
85,915,840,14,114,SISQUOC,1,34.737573,-120.235428,92,32,1,1,14114,Point
86,916,840,14,116,LONE PINE,1,36.507473,-118.098991,80,33,1,1,14116,Point
87,917,840,14,117,SILVER CITY,1,36.466427,-118.654778,92,15,1,1,14117,Point
88,918,840,14,118,LOCKWOOD VAL,1,34.738343,-119.045021,95,32,1,1,14118,Point
89,924,840,14,124,DEATH VALLEY,1,36.437309,-116.851174,80,33,1,1,14124,Point
90,925,840,14,125,MARICOPA,1,35.058629,-119.349299,91,32,1,1,14125,Point
91,928,840,14,128,KELSO VALLEY,1,35.549458,-118.2071,92,33,1,1,14128,Point
92,929,840,14,129,MT BALDY,1,34.174889,-117.676613,92,32,1,1,14129,Point
93,930,840,14,130,GREEN VALLEY,1,34.245256,-117.063958,95,32,1,1,14130,Point
94,932,840,14,132,KINGS CANYON,1,36.818942,-118.908898,92,15,1,1,14132,Point
95,933,840,14,133,ELIZABETH LK,1,34.668595,-118.395354,92,32,1,1,14133,Point
96,934,840,14,134,VENTUCOPA,1,34.818791,-119.556995,90,32,1,1,14134,Point
97,936,840,14,136,LAKE CACHUMA,1,34.673961,-119.668533,92,32,1,1,14136,Point
98,939,840,14,139,GREENWATER V,1,36.050985,-116.500418,80,33,1,1,14139,Point
99,940,840,14,140,CARRIZO PLN,1,35.093169,-119.729874,91,32,1,1,14140,Point
100,941,840,14,141,WHITE RIVER,0,35.816307,-118.8451,92,32,1,1,14141,Point
101,942,840,14,142,MT PINOS 2,1,34.83394,-119.329946,95,32,1,1,14142,Point
102,943,840,14,145,SHAFTER,0,35.441754,-119.287178,91,32,1,1,14145,Point
103,944,840,14,147,ARVIN,1,35.22337,-118.878243,91,32,1,1,14147,Point
104,948,840,14,151,LIKELY,1,41.235147,-120.336829,85,9,1,1,14151,Point
105,950,840,14,153,GOLD HILL,1,38.768761,-120.925316,92,32,1,1,14153,Point
106,951,840,14,154,CROWLEY LAKE,1,37.637577,-118.655066,88,9,1,1,14154,Point
107,953,840,14,156,TUOLUMNE GROVE,1,37.747267,-119.80352,66,15,1,1,14156,Point
108,954,840,14,157,JACKSON,0,38.375515,-120.666893,92,32,1,1,14157,Point
109,955,840,14,158,SATTLEY,1,39.615376,-120.425822,85,15,1,1,14158,Point
110,956,840,14,159,OROVILLE,1,39.497896,-121.609306,91,32,1,1,14159,Point
111,958,840,14,161,TEHAMA,1,40.335709,-121.915726,92,32,1,1,14161,Point
112,959,840,14,162,HONEY LAKE,1,40.49329,-120.108001,89,9,1,1,14162,Point
113,960,840,14,163,REDDING,0,40.672486,-122.322487,92,32,1,1,14163,Point
114,962,840,14,165,DAVIS CREEK,1,41.733279,-120.375313,85,9,1,1,14165,Point
115,963,840,14,166,DORRIS,1,41.999886,-121.891607,85,9,1,1,14166,Point
116,965,840,14,168,MACDOEL,1,41.8224,-122.011114,85,9,1,1,14168,Point
117,966,840,14,169,MCCLOUD,1,41.232321,-122.135552,85,5,1,1,14169,Point
118,967,840,14,170,BRIDGEPORT,0,38.259276,-119.221886,88,9,1,1,14170,Point
119,972,840,14,175,MT SHASTA,1,41.400098,-122.049973,85,5,1,1,14175,Point
120,973,840,14,176,CLEAR LK RES,1,41.819007,-121.069262,85,9,1,1,14176,Point
121,974,840,14,177,CEDARVILLE,1,41.529576,-120.171852,89,9,1,1,14177,Point
122,977,840,14,180,BUTTE MEADOW,1,40.117338,-121.575501,66,15,1,1,14180,Point
123,978,840,14,181,GENESEE,1,40.201761,-120.623502,66,15,1,1,14181,Point
124,981,840,14,184,HIGGINS CORN,1,39.068694,-121.009956,92,15,1,1,14184,Point
125,982,840,14,185,DOWNIEVILLE,1,39.56022,-120.828011,66,15,1,1,14185,Point
126,985,840,14,188,RIVERTON,1,38.769412,-120.447387,66,15,1,1,14188,Point
127,989,840,14,192,DEEP SPRINGS,1,37.415801,-118.004311,88,9,1,1,14192,Point
128,996,840,14,199,BARTLE,1,41.252811,-121.823848,85,9,1,1,14199,Point
129,998,840,14,201,HAT CREEK,1,40.81885,-121.570037,66,15,1,1,14201,Point
130,1002,840,14,205,LAKESHORE,1,37.255621,-119.161464,66,15,1,1,14205,Point
131,1005,840,14,213,TAHOE NF,0,39.022677,-120.810058,66,15,1,1,14213,Point
132,1012,840,14,240,WILLOW SPRINGS 2,1,34.971073,-118.148742,83,33,1,1,14240,Point
133,1013,840,14,245,BUENA VISTA,1,35.477944,-119.296211,91,32,1,1,14245,Point
134,1015,840,14,260,LENWOOD 2,1,34.836431,-117.16759,83,33,1,1,14260,Point
135,1019,840,14,308,CHAOS CRATER,1,40.497606,-121.428299,66,15,1,1,14308,Point
136,1024,840,14,341,CAL HOT SPGS,1,35.89089,-118.85004,92,32,1,1,14341,Point
137,1025,840,14,345,Harbor Lake 2,1,33.790921,-118.2918,90,32,1,1,14345,Point
138,1027,840,14,357,POLOMA,1,38.353934,-120.67979,92,32,1,1,14357,Point
139,1028,840,14,366,WOODLANDS,1,34.288143,-116.767411,95,32,1,1,14366,Point
140,1033,840,14,405,HACKAMORE,1,41.609179,-121.050248,85,9,1,1,14405,Point
141,1034,840,14,406,TIONESTA,1,41.670897,-121.257461,85,9,1,1,14406,Point
142,1035,840,14,407,CROWDER FLAT,1,41.869963,-120.501154,85,9,1,1,14407,Point
143,1036,840,14,408,MADELINE,1,41.053462,-120.474555,85,9,1,1,14408,Point
144,1040,840,14,412,FALL RIVER MILLS,1,40.962084,-121.578842,66,9,1,1,14412,Point
145,1041,840,14,413,CHESTER,1,40.305215,-121.143089,66,15,1,1,14413,Point
146,1042,840,14,414,GOUMAZ,1,40.439268,-120.835817,85,15,1,1,14414,Point
147,1043,840,14,415,PAXTON,1,40.040228,-120.996182,66,15,1,1,14415,Point
148,1044,840,14,416,MEADOW VALLEY,1,39.949366,-121.038063,66,15,1,1,14416,Point
149,1045,840,14,417,LITTLE TRUCKEE,1,39.506243,-120.096211,66,15,1,1,14417,Point
150,1046,840,14,418,FOREST HILL,1,39.01924,-120.826324,66,15,1,1,14418,Point
151,1047,840,14,419,POLLOCK PINES,1,38.739683,-120.573408,66,15,1,1,14419,Point
152,1048,840,14,420,PLACERVILLE,1,38.799581,-120.724213,92,15,1,1,14420,Point
153,1050,840,14,422,WAWONA,1,37.461875,-119.793803,92,15,1,1,14422,Point
154,1051,840,14,423,PINE MOUNTAIN,1,36.0106,-118.121361,66,15,1,1,14423,Point
155,1052,840,14,424,KERNVILLE,1,35.79456,-118.44867,92,15,1,1,14424,Point
156,1053,840,14,425,SOUTH LAKE,1,35.69239,-118.290542,92,32,1,1,14425,Point
157,1054,840,14,426,CRESTVIEW,1,37.77678,-119.016875,88,15,1,1,14426,Point
158,1055,840,14,427,ALAMAR,1,34.707242,-119.617729,90,32,1,1,14427,Point
159,1058,840,14,430,MEDICINE MTN.,1,41.534114,-121.58434,85,9,1,1,14430,Point
160,1061,840,14,433,CHILCOOT,1,39.797814,-120.139403,85,15,1,1,14433,Point
161,1062,840,14,434,STRAWBERRY,1,38.17002,-120.037696,66,15,1,1,14434,Point
162,1064,840,14,436,LAST CHANCE,1,40.154164,-120.54534,66,15,1,1,14436,Point
163,1067,840,14,518,FOREST HILL 2,0,39.06961,-120.56761,66,15,1,1,14518,Point
164,1068,840,14,536,SQUAW VALLEY,0,40.153816,-120.545784,66,15,1,1,14536,Point
165,1079,840,17,1,MAYBELL,1,40.74022,-108.088326,86,10,1,1,17001,Point
166,1080,840,17,2,GREAT DIVIDE,1,40.840323,-107.690102,86,10,1,1,17002,Point
167,1081,840,17,3,YAMPA,1,40.153186,-106.874918,84,16,1,1,17003,Point
168,1082,840,17,4,HARMONY,1,40.509083,-105.03923,87,16,1,1,17004,Point
169,1083,840,17,5,BRIGGSDALE,1,40.596354,-104.202782,36,18,1,1,17005,Point
170,1084,840,17,6,PINNEO,1,40.20964,-103.440258,36,18,1,1,17006,Point
171,1085,840,17,7,FLEMING,1,40.656948,-102.933716,36,18,1,1,17007,Point
172,1086,840,17,8,DOUGLAS PASS,1,39.400343,-108.812363,84,16,1,1,17008,Point
173,1087,840,17,9,BUFORD,1,39.965891,-107.648323,84,16,1,1,17009,Point
174,1088,840,17,10,ASPEN,1,39.243807,-106.761066,62,16,1,1,17010,Point
175,1089,840,17,11,CHEESMAN LK,1,39.22098,-105.279199,62,16,1,1,17011,Point
176,1090,840,17,12,KIOWA,0,39.379842,-104.369157,87,18,1,1,17012,Point
177,1091,840,17,13,LAST CHANCE,0,39.856886,-103.649377,36,18,1,1,17013,Point
178,1092,840,17,14,ABARR,1,39.830769,-102.632591,36,18,1,1,17014,Point
179,1093,840,17,15,DELTA,1,38.694789,-108.139051,84,16,1,1,17015,Point
180,1094,840,17,16,COLONA,0,38.305785,-107.963312,62,16,1,1,17016,Point
181,1095,840,17,17,PARLIN,1,38.513728,-106.755073,62,16,1,1,17017,Point
182,1096,840,17,18,MOFFAT,1,38.025678,-105.812715,87,16,1,1,17018,Point
183,1097,840,17,19,RUSH,1,38.839881,-104.092041,36,18,1,1,17019,Point
184,1098,840,17,20,BOYERO,1,38.641057,-103.227936,36,18,1,1,17020,Point
185,1099,840,17,21,LAMAR,1,38.143772,-102.521233,36,18,1,1,17021,Point
186,1100,840,17,22,DOLORES,0,37.518197,-108.535576,84,16,1,1,17022,Point
187,1101,840,17,23,FALFA,1,37.214951,-107.791809,84,16,1,1,17023,Point
188,1102,840,17,24,PAGOSA SPGS,0,37.287731,-106.836945,62,16,1,1,17024,Point
189,1103,840,17,25,BLANCA,0,37.28735,-105.552498,87,16,1,1,17025,Point
190,1106,840,17,28,TWO BUTTES,1,37.687984,-102.292183,36,18,1,1,17028,Point
191,1107,840,17,31,WRAY GULCH,1,40.065301,-108.415387,84,16,1,1,17031,Point
192,1108,840,17,32,WILSON CREEK,1,40.138026,-107.969772,84,16,1,1,17032,Point
193,1109,840,17,33,WALDEN,1,40.879685,-106.45919,86,16,1,1,17033,Point
194,1110,840,17,34,LOST LAKE,1,40.871617,-105.90793,62,16,1,1,17034,Point
195,1111,840,17,35,HUDSON,1,40.305242,-104.696343,36,18,1,1,17035,Point
196,1112,840,17,36,WILDHORSE L,1,40.847844,-103.343926,36,18,1,1,17036,Point
197,1113,840,17,37,WAVERLY,1,40.263115,-102.718208,36,18,1,1,17037,Point
198,1114,840,17,38,FRUITA,0,39.164394,-108.701244,87,16,1,1,17038,Point
199,1115,840,17,39,WILLOW PEAK,1,39.664036,-107.123213,62,16,1,1,17039,Point
200,1116,840,17,40,RED CLIFF,1,39.544267,-106.220612,62,16,1,1,17040,Point
201,1117,840,17,41,TARRYALL,1,39.080063,-105.416001,62,16,1,1,17041,Point
202,1118,840,17,42,ADAMS CO.,1,39.840759,-104.188668,36,18,1,1,17042,Point
203,1119,840,17,43,GORDON CREEK,1,39.610559,-103.1231,36,18,1,1,17043,Point
204,1120,840,17,44,BETHUNE,1,39.388308,-102.427452,36,18,1,1,17044,Point
205,1121,840,17,45,UNCOMPAHGRE,1,38.739729,-108.623622,62,16,1,1,17045,Point
206,1122,840,17,46,CASTLETON,1,38.592052,-106.917498,62,16,1,1,17046,Point
207,1123,840,17,47,DOYLEVILLE,1,38.511252,-106.554206,62,16,1,1,17047,Point
208,1124,840,17,48,GUFFEY,1,38.982811,-105.574674,62,16,1,1,17048,Point
209,1125,840,17,49,EDISON,1,38.694518,-104.071594,36,18,1,1,17049,Point
210,1127,840,17,51,CHEYENNE,1,38.69335,-102.590675,36,18,1,1,17051,Point
211,1128,840,17,52,DOLORES RIV,1,37.790749,-108.020439,62,16,1,1,17052,Point
212,1129,840,17,53,LAKE CITY,0,37.985745,-107.22396,62,16,1,1,17053,Point
213,1130,840,17,54,PINOS CREEK,0,37.479856,-106.452279,62,16,1,1,17054,Point
214,1131,840,17,55,ALAMOSA,1,37.181085,-105.745965,87,16,1,1,17055,Point
215,1135,840,17,112,KIOWA 2,1,39.328838,-104.38167,36,18,1,1,17112,Point
216,1136,840,17,113,Last Chance 2,1,39.856886,-103.649376,36,18,1,1,17113,Point
217,1137,840,17,116,COLONA 2,1,38.305785,-107.963311,62,16,1,1,17116,Point
218,1138,840,17,122,CORTEZ,0,37.516654,-108.464516,84,16,1,1,17122,Point
219,1139,840,17,124,BLACKHEAD PK,1,37.288174,-106.837702,62,16,1,1,17124,Point
220,1140,840,17,125,SAN LUIS,1,37.287296,-105.552582,87,16,1,1,17125,Point
221,1142,840,17,138,Rosevale,1,39.052106,-108.575577,84,16,1,1,17138,Point
222,1143,840,17,153,RIO GRNDS RS,1,37.779275,-107.003624,62,16,1,1,17153,Point
223,1144,840,17,154,SUMMITVILLE,1,37.632987,-106.425093,62,16,1,1,17154,Point
224,1145,840,17,201,BROWNS PARK,1,40.616553,-108.673668,84,10,1,1,17201,Point
225,1146,840,17,202,DUNCKLEY PAS,1,40.210173,-107.03314,62,16,1,1,17202,Point
226,1147,840,17,203,BUFFALO PARK,1,40.133194,-106.490784,62,16,1,1,17203,Point
227,1148,840,17,204,DEADMAN RD.,1,40.759749,-105.472207,62,16,1,1,17204,Point
228,1149,840,17,205,GROVER,1,40.856616,-104.542015,36,18,1,1,17205,Point
229,1150,840,17,206,STONEHAM,1,40.5808,-103.658089,36,18,1,1,17206,Point
230,1151,840,17,207,AMHERST,1,40.614145,-102.084565,36,18,1,1,17207,Point
231,1152,840,17,208,DE BEQUE,1,39.513037,-108.46228,84,16,1,1,17208,Point
232,1153,840,17,209,FLATTOPS,1,39.646815,-107.616966,62,16,1,1,17209,Point
233,1154,840,17,210,THOMASVILLE,1,39.378993,-106.813599,62,16,1,1,17210,Point
234,1155,840,17,211,GUANELLA PAS,1,39.666667,-105.85,62,16,1,1,17211,Point
235,1156,840,17,212,PROSPECT VAL,0,39.985983,-104.510414,36,18,1,1,17212,Point
236,1157,840,17,213,LIMON,1,39.373985,-103.786724,36,18,1,1,17213,Point
237,1158,840,17,214,KIRK,1,39.534143,-102.592346,36,18,1,1,17214,Point
238,1159,840,17,215,PINON,1,38.265741,-108.34898,62,16,1,1,17215,Point
239,1160,840,17,216,PAONIA,1,38.838784,-107.602508,84,16,1,1,17216,Point
240,1161,840,17,217,TINCUP,1,38.747421,-106.431206,62,16,1,1,17217,Point
241,1162,840,17,218,WET MTNS.,1,38.367404,-105.229073,62,16,1,1,17218,Point
242,1165,840,17,221,NEEGRANDE,1,38.295869,-102.738117,36,18,1,1,17221,Point
243,1166,840,17,222,GROUNDHOG RS,1,37.780186,-108.088845,62,16,1,1,17222,Point
244,1167,840,17,223,PIEDRA,1,37.232938,-107.183624,62,16,1,1,17223,Point
245,1168,840,17,224,FOX CREEK,1,37.059354,-106.191575,62,16,1,1,17224,Point
246,1169,840,17,225,MOSCA,1,37.690973,-105.927905,87,16,1,1,17225,Point
247,1173,840,17,253,Lake City 2,1,37.940923,-107.15889,62,16,1,1,17253,Point
248,1174,840,17,301,DINOSAUR,1,40.277766,-108.559632,84,16,1,1,17301,Point
249,1175,840,17,302,LAY,1,40.668104,-107.861603,86,10,1,1,17302,Point
250,1176,840,17,303,STEAMBOAT L.,1,40.674608,-106.933185,62,16,1,1,17303,Point
251,1177,840,17,304,COMANCHE PK,1,40.569225,-105.428445,62,16,1,1,17304,Point
252,1178,840,17,305,NUNN,1,40.862701,-104.639007,36,18,1,1,17305,Point
253,1179,840,17,306,FORT MORGAN,1,40.34927,-103.799767,36,18,1,1,17306,Point
254,1180,840,17,307,JULESBURG,1,40.967912,-102.325789,36,18,1,1,17307,Point
255,1181,840,17,308,BAXTER PASS,1,39.443328,-108.954895,84,16,1,1,17308,Point
256,1182,840,17,309,RAGGED MTN.,1,39.079967,-107.367834,62,16,1,1,17309,Point
257,1183,840,17,310,WESTON PASS,0,39.152961,-106.408715,62,16,1,1,17310,Point
258,1184,840,17,311,COMO,1,39.410681,-105.96872,62,16,1,1,17311,Point
259,1185,840,17,312,BENNETT,1,39.723854,-104.377353,36,18,1,1,17312,Point
260,1186,840,17,313,FLAGLER,1,39.56753,-103.023742,36,18,1,1,17313,Point
261,1187,840,17,314,BURLINGTON,1,39.171864,-102.110558,36,18,1,1,17314,Point
262,1188,840,17,315,BASIN,1,38.068777,-108.460831,87,16,1,1,17315,Point
263,1189,840,17,316,POWDERHORN,1,38.464805,-107.26329,62,16,1,1,17316,Point
264,1190,840,17,317,MARSHALL PAS,1,38.448058,-106.106965,62,16,1,1,17317,Point
265,1191,840,17,318,GRIBBLES PRK,1,38.644133,-105.779465,62,16,1,1,17318,Point
266,1192,840,17,319,ELLICOTT,1,38.549577,-104.458873,36,18,1,1,17319,Point
267,1193,840,17,320,KARVAL,1,38.762411,-103.348915,36,18,1,1,17320,Point
268,1194,840,17,321,SHERIDAN LAK,1,38.24607,-102.210762,36,18,1,1,17321,Point
269,1195,840,17,322,MCPHEE RES.,1,37.839953,-108.761077,84,16,1,1,17322,Point
270,1196,840,17,323,ANIMAS,0,37.237083,-107.870132,84,16,1,1,17323,Point
271,1197,840,17,324,SOUTH FORK,1,37.649005,-106.653317,62,16,1,1,17324,Point
272,1198,840,17,325,ANTONITO,0,37.098706,-105.520851,87,16,1,1,17325,Point
273,1202,840,17,351,ANGORA,1,40.204444,-108.753982,84,16,1,1,17351,Point
274,1203,840,17,352,YELLOWJACKET PASS,1,40.052265,-107.873617,84,16,1,1,17352,Point
275,1204,840,17,353,STILLWATER PASS,0,40.312609,-105.978723,62,16,1,1,17353,Point
276,1205,840,17,354,GOLD HILL,0,40.020591,-105.296167,62,16,1,1,17354,Point
277,1206,840,17,358,PICEANCE BASIN,0,39.822869,-108.165154,84,16,1,1,17358,Point
278,1207,840,17,359,RIFLE FALLS,1,39.757834,-107.692269,84,16,1,1,17359,Point
279,1208,840,17,360,RADIUM,0,39.953968,-106.55835,62,16,1,1,17360,Point
280,1209,840,17,361,ROLLINS PASS,1,39.823519,-105.523808,62,16,1,1,17361,Point
281,1210,840,17,362,ELBERT,1,38.999964,-104.738045,87,18,1,1,17362,Point
282,1211,840,17,365,NUCLA,1,38.270086,-108.53668,62,16,1,1,17365,Point
283,1212,840,17,366,OWL CREEK PASS,1,38.173837,-107.741691,62,16,1,1,17366,Point
284,1213,840,17,367,COCHETOPA PASS,1,38.05402,-106.864556,62,16,1,1,17367,Point
285,1214,840,17,368,WESTCLIFFE,1,38.150223,-105.513756,62,16,1,1,17368,Point
286,1215,840,17,372,HAYCAMP MESA,1,37.443248,-108.474358,62,16,1,1,17372,Point
287,1216,840,17,373,LIZARD HEAD PASS,1,37.942701,-107.822396,62,16,1,1,17373,Point
288,1217,840,17,374,MOON PASS,1,37.839218,-106.256082,62,16,1,1,17374,Point
289,1218,840,17,375,GARDNER,1,37.941094,-105.232388,84,16,1,1,17375,Point
290,1220,840,17,377,BLACK SULPHUR CR,1,39.871749,-108.284991,84,16,1,1,17377,Point
291,1221,840,17,378,HEENEY,1,39.845893,-106.23612,62,16,1,1,17378,Point
292,1222,840,17,410,WESTON PASS 2,1,39.130554,-106.178893,62,16,1,1,17410,Point
293,1223,840,17,412,PROSPECT VALLEY 2,1,39.984865,-104.508669,36,18,1,1,17412,Point
294,1225,840,17,422,Cortez 2,1,37.516654,-108.46451,84,16,1,1,17422,Point
295,1226,840,17,423,ANIMAS 2,1,37.231433,-107.869555,84,16,1,1,17423,Point
296,1227,840,17,425,MESITA,1,37.098896,-105.521012,87,16,1,1,17425,Point
297,1228,840,17,453,Stillwater Pass 2,1,40.179928,-106.00812,62,16,1,1,17453,Point
298,1229,840,17,454,GOLD HILL 2,1,40.020591,-105.296167,62,16,1,1,17454,Point
299,1230,840,17,900,ARSENAL,0,39.813083,-104.798629,36,18,1,2,17900,Point
300,1231,840,17,901,ROCKPORT,1,40.812063,-104.791222,36,18,1,2,17901,Point
301,1232,840,17,902,MOUNT EVANS,1,39.684809,-105.372222,62,16,1,2,17902,Point
302,1233,840,17,903,MESAVERDE NP,1,37.270407,-108.48243,84,16,1,2,17903,Point
303,1234,840,17,904,TRAIL RIDGE ROAD,0,40.431996,-105.763001,62,16,1,2,17904,Point
304,1235,840,17,905,ARSENAL 2,1,39.82724,-104.80072,36,18,1,2,17905,Point
305,1510,840,33,1,NAPLES,1,48.581792,-116.397491,64,10,1,1,33001,Point
306,1511,840,33,2,MIVODEN,1,47.782581,-116.667269,64,10,1,1,33002,Point
307,1512,840,33,3,AVERY,1,47.250527,-115.810927,64,10,1,1,33003,Point
308,1513,840,33,4,GIFFORD,1,46.453255,-116.556035,65,9,1,1,33004,Point
309,1514,840,33,5,NEZPERCE,1,46.076118,-115.412217,64,10,1,1,33005,Point
310,1515,840,33,6,LOLO PASS,1,46.639823,-114.542478,64,10,1,1,33006,Point
311,1516,840,33,7,GRANGEVILLE,1,45.881316,-116.112465,64,10,1,1,33007,Point
312,1517,840,33,8,GOLDEN,1,45.811814,-115.681061,64,10,1,1,33008,Point
313,1518,840,33,9,DEEP CREEK,0,45.7,-114.633333,64,10,1,1,33009,Point
314,1519,840,33,10,BAKER,1,45.034109,-113.562483,65,9,1,1,33010,Point
315,1520,840,33,11,CASCADE,0,44.581435,-116.040573,65,10,1,1,33011,Point
316,1521,840,33,12,CAPE HORN,1,44.457203,-115.09797,64,10,1,1,33012,Point
317,1522,840,33,13,CHALLIS,1,44.612728,-114.174324,65,10,1,1,33013,Point
318,1523,840,33,14,LEADORE,1,44.722359,-113.52036,65,9,1,1,33014,Point
319,1524,840,33,15,DUBOIS,1,44.238457,-112.256187,89,9,1,1,33015,Point
320,1525,840,33,16,SQUIRREL,1,44.027134,-111.258698,65,9,1,1,33016,Point
321,1526,840,33,17,BLACKS CREEK,0,43.455341,-116.0962,89,9,1,1,33017,Point
322,1527,840,33,18,CENTERVILLE,1,43.725818,-115.951094,64,10,1,1,33018,Point
323,1528,840,33,19,ALTURAS,0,43.897732,-114.907379,64,10,1,1,33019,Point
324,1529,840,33,20,CRATERS,1,43.461932,-113.563001,89,9,1,1,33020,Point
325,1530,840,33,21,SPRINGFIELD,1,43.110429,-112.731798,89,9,1,1,33021,Point
326,1531,840,33,22,RIRIE,1,43.534312,-111.701027,89,9,1,1,33022,Point
327,1532,840,33,23,TRIANGLE,1,42.813142,-116.639401,89,9,1,1,33023,Point
328,1533,840,33,24,GLENNS FERRY,0,42.90946,-115.185196,89,9,1,1,33024,Point
329,1534,840,33,25,MAGIC MTN,1,42.331156,-114.279453,88,9,1,1,33025,Point
330,1535,840,33,26,ACEQUIA,1,42.677023,-113.5891,89,9,1,1,33026,Point
331,1536,840,33,27,POCATELLO,1,42.854817,-112.519388,88,9,1,1,33027,Point
332,1537,840,33,28,HENRY,0,42.930964,-111.552459,88,9,1,1,33028,Point
333,1538,840,33,29,COOLIN,1,48.47979,-116.849251,64,10,1,1,33029,Point
334,1539,840,33,30,Baldy Mountain,1,45.816285,-115.472606,64,10,1,1,33030,Point
335,1540,840,33,109,NEZPERCE NF,0,45.825742,-115.435934,64,10,1,1,33109,Point
336,1541,840,33,111,CABARTON,1,44.413896,-116.031561,65,10,1,1,33111,Point
337,1542,840,33,117,MORA,1,43.459543,-116.354524,89,9,1,1,33117,Point
338,1543,840,33,119,SAWTOOTH CTY,0,43.911093,-114.876112,64,10,1,1,33119,Point
339,1544,840,33,124,PASADENA VAL,1,42.953922,-115.212457,89,9,1,1,33124,Point
340,1545,840,33,128,BLACKFT RES,1,42.961315,-111.718551,89,9,1,1,33128,Point
341,1546,840,33,202,MARBLE CREEK,1,47.250284,-116.022828,64,10,1,1,33202,Point
342,1547,840,33,204,JOEL,1,46.447022,-116.839148,65,9,1,1,33204,Point
343,1548,840,33,205,PIERCE,1,46.472474,-115.796969,64,10,1,1,33205,Point
344,1549,840,33,207,SALMON RIVER,1,45.389889,-116.034299,64,10,1,1,33207,Point
345,1550,840,33,208,BURGDORF,1,45.342079,-115.947594,64,10,1,1,33208,Point
346,1551,840,33,209,COBALT,1,45.077839,-114.011999,64,10,1,1,33209,Point
347,1552,840,33,211,CRANE CREEK,1,44.1957,-116.508725,89,10,1,1,33211,Point
348,1553,840,33,212,YELLOW PINE,1,44.960085,-115.493348,64,10,1,1,33212,Point
349,1554,840,33,213,SUNBEAM,1,44.271198,-114.733864,64,10,1,1,33213,Point
350,1555,840,33,214,IRON SPRINGS,1,44.233,-113.370482,65,9,1,1,33214,Point
351,1556,840,33,217,SILVER CITY,1,43.158435,-116.508828,89,9,1,1,33217,Point
352,1557,840,33,218,FEATHERVILLE,1,43.413513,-115.361024,64,10,1,1,33218,Point
353,1558,840,33,219,PICABO,1,43.400782,-114.252264,89,9,1,1,33219,Point
354,1559,840,33,220,CAREY,1,43.338726,-113.874362,89,9,1,1,33220,Point
355,1560,840,33,221,MUD LAKE,1,43.812427,-112.396012,89,9,1,1,33221,Point
356,1561,840,33,222,BATES,1,43.824816,-111.200611,65,9,1,1,33222,Point
357,1562,840,33,223,DOUGAL RES,1,42.64393,-116.993676,89,9,1,1,33223,Point
358,1563,840,33,224,HOT SPRING,1,42.791873,-115.717952,89,9,1,1,33224,Point
359,1564,840,33,225,CEDAR HILL,1,42.431685,-114.088832,89,9,1,1,33225,Point
360,1565,840,33,226,ALMO,1,42.210002,-113.84021,88,9,1,1,33226,Point
361,1566,840,33,227,DANIELS RES,1,42.498831,-112.391815,88,9,1,1,33227,Point
362,1567,840,33,228,PRESTON,1,42.002139,-111.95381,88,9,1,1,33228,Point
363,1568,840,33,319,SAWTOOTH CITY 2,1,43.911093,-114.876111,64,10,1,1,33319,Point
364,1569,840,33,901,TWIN BUTTES,1,43.521597,-112.65036,89,9,1,2,33901,Point
365,1570,840,33,902,LOST RIVER,1,43.549349,-113.009455,89,9,1,2,33902,Point
366,1571,840,33,903,KYLE CANYON,1,43.743192,-112.842387,89,9,1,2,33903,Point
367,1572,840,33,904,CIRCULAR BU,1,43.560202,-112.872159,89,9,1,2,33904,Point
368,1573,840,33,905,TRACTOR FLAT,1,43.549259,-112.63692,89,9,1,2,33905,Point
369,1574,840,33,906,N FORK CDA R,1,47.884494,-116.131874,64,10,1,2,33906,Point
370,1575,840,33,907,ROCHAT DIVDE,1,47.546697,-116.331276,64,10,1,2,33907,Point
371,1799,840,38,12,LAKIN,1,37.958926,-101.431649,36,18,1,1,38012,Point
372,1811,840,38,24,WALLACE,1,38.727831,-101.650826,36,18,1,1,38024,Point
373,1825,840,38,38,RULETON,1,39.176767,-101.968987,36,18,1,1,38038,Point
374,1851,840,38,323,Winona,1,39.119524,-101.727883,36,18,1,1,38323,Point
375,2702,840,53,1,LIBBY DAM,1,48.357176,-115.03322,64,10,1,1,53001,Point
376,2703,840,53,2,KALISPELL,1,48.108019,-114.461929,65,10,1,1,53002,Point
377,2704,840,53,3,ST MARY,0,48.808409,-113.413018,65,10,1,1,53003,Point
378,2705,840,53,4,HAY LAKE,1,48.957684,-112.325393,38,11,1,1,53004,Point
379,2706,840,53,5,SUNBURST,0,48.871155,-111.622297,38,11,1,1,53005,Point
380,2707,840,53,6,VIRGELLE,1,48.061,-110.332178,38,11,1,1,53006,Point
381,2708,840,53,7,CLEVELAND,1,48.29679,-109.064834,39,11,1,1,53007,Point
382,2709,840,53,8,HARLEM,1,48.382436,-108.71441,38,11,1,1,53008,Point
383,2710,840,53,9,MALTA,1,48.22002,-107.868382,38,11,1,1,53009,Point
384,2711,840,53,10,GLASGOW,1,48.204575,-106.533433,38,11,1,1,53010,Point
385,2712,840,53,11,OSWEGO,1,48.059693,-105.994659,38,11,1,1,53011,Point
386,2713,840,53,12,REDSTONE,1,48.838221,-104.841995,38,11,1,1,53012,Point
387,2714,840,53,13,ST REGIS,1,47.299723,-115.104455,64,10,1,1,53013,Point
388,2715,840,53,14,POLSON,1,47.718545,-114.200607,65,10,1,1,53014,Point
389,2716,840,53,15,ARLEE,1,47.182476,-113.94899,64,10,1,1,53015,Point
390,2717,840,53,16,AUGUSTA,1,47.306062,-112.411812,65,10,1,1,53016,Point
391,2718,840,53,17,GREAT FALLS,1,47.494189,-111.262863,38,11,1,1,53017,Point
392,2719,840,53,18,HIGHWOOD,1,47.50541,-110.895866,39,17,1,1,53018,Point
393,2720,840,53,19,LEROY,1,47.78741,-109.415084,39,17,1,1,53019,Point
394,2721,840,53,20,ROY,1,47.270593,-108.801012,39,17,1,1,53020,Point
395,2722,840,53,21,BRUSETT,1,47.498806,-107.312931,39,17,1,1,53021,Point
396,2723,840,53,22,JORDAN,1,47.604211,-106.903565,39,17,1,1,53022,Point
397,2724,840,53,23,CIRCLE,1,47.548833,-105.812316,39,17,1,1,53023,Point
398,2725,840,53,24,SAVAGE,1,47.46957,-104.152702,39,17,1,1,53024,Point
399,2726,840,53,25,WOODMAN,1,46.917538,-114.462692,64,10,1,1,53025,Point
400,2727,840,53,26,CLINTON,1,46.723693,-113.668158,64,10,1,1,53026,Point
401,2728,840,53,27,ELLISTON,1,46.620514,-112.49495,65,10,1,1,53027,Point
402,2729,840,53,28,BOULDER,1,46.123547,-111.918861,65,10,1,1,53028,Point
403,2730,840,53,29,TWO DOT,1,46.329591,-110.051528,65,17,1,1,53029,Point
404,2731,840,53,30,SHAWMUT,1,46.103292,-109.666482,39,17,1,1,53030,Point
405,2732,840,53,31,FLATWILLOW,0,46.90222,-108.346809,39,17,1,1,53031,Point
406,2733,840,53,32,INGOMAR,1,46.583534,-107.06408,39,17,1,1,53032,Point
407,2734,840,53,33,FORSYTH,1,46.257945,-106.69394,39,17,1,1,53033,Point
408,2735,840,53,34,LOCATE,1,46.497389,-105.089534,39,17,1,1,53034,Point
409,2736,840,53,35,WEBSTER,1,46.112841,-104.495095,39,17,1,1,53035,Point
410,2737,840,53,36,SULA,1,45.850706,-113.952247,64,10,1,1,53036,Point
411,2738,840,53,37,TWIN BRIDGES,0,45.305575,-112.564316,65,10,1,1,53037,Point
412,2739,840,53,38,WILLOW CREEK,0,45.914644,-111.763656,65,10,1,1,53038,Point
413,2740,840,53,39,CHESTNUT,1,45.576141,-110.787895,64,10,1,1,53039,Point
414,2741,840,53,40,REED POINT,1,45.725171,-109.546654,65,17,1,1,53040,Point
415,2742,840,53,41,LAUREL,1,45.564209,-108.78024,39,10,1,1,53041,Point
416,2743,840,53,42,ST XAVIER,0,45.431921,-107.720742,39,17,1,1,53042,Point
417,2744,840,53,43,BRANDENBERG,1,45.827928,-106.429092,39,17,1,1,53043,Point
418,2745,840,53,44,POWDERVILLE,1,45.944079,-105.413067,39,17,1,1,53044,Point
419,2746,840,53,45,ALBION,1,45.310776,-104.465038,39,17,1,1,53045,Point
420,2747,840,53,46,BEAVERHEAD,1,44.586903,-112.025803,65,10,1,1,53046,Point
421,2748,840,53,47,RED ROCK,1,44.598733,-111.523797,65,10,1,1,53047,Point
422,2749,840,53,63,THOMPSON RIV,1,47.649743,-115.17429,64,10,1,1,53063,Point
423,2750,840,53,64,NINEMILE,1,47.03123,-114.393869,64,10,1,1,53064,Point
424,2751,840,53,74,PABLO RES.,1,47.660173,-114.134559,65,10,1,1,53074,Point
425,2752,840,53,75,FISH CREEK,1,46.90787,-114.810931,64,10,1,1,53075,Point
426,2753,840,53,76,SKALKAHO,0,46.050215,-113.833954,64,10,1,1,53076,Point
427,2754,840,53,86,PAINTED ROCK,1,45.746173,-114.447318,64,10,1,1,53086,Point
428,2755,840,53,87,WISE RIVER,1,45.534723,-113.079457,65,10,1,1,53087,Point
429,2756,840,53,97,LIMA,1,44.561141,-112.710893,65,10,1,1,53097,Point
430,2757,840,53,101,NOXON,1,47.826504,-115.545388,64,10,1,1,53101,Point
431,2758,840,53,103,St. Mary 2,1,48.808387,-113.41292,65,10,1,1,53103,Point
432,2759,840,53,105,Whitlash,1,48.682302,-111.46974,38,11,1,1,53105,Point
433,2760,840,53,131,Flatwillow 2,1,46.90222,-108.3468,39,17,1,1,53131,Point
434,2761,840,53,137,GLEN,1,45.379073,-112.641976,65,10,1,1,53137,Point
435,2762,840,53,138,WILLOW CREEK 2,1,45.914644,-111.763656,65,10,1,1,53138,Point
436,2763,840,53,142,ST XAVIER 2,1,45.519386,-107.701631,39,17,1,1,53142,Point
437,2764,840,53,176,SKALKHO-RYE,1,46.009078,-113.849217,64,10,1,1,53176,Point
438,2765,840,53,231,FLATWILLOW 3,0,46.8267,-108.1998,39,17,1,1,53231,Point
439,2766,840,53,300,EUREKA,1,48.995331,-115.05678,64,10,1,1,53300,Point
440,2767,840,53,301,WHITEFISH LAKE,1,48.492404,-114.429102,64,10,1,1,53301,Point
441,2768,840,53,302,EAST GLACIER PARK,1,48.441349,-113.218436,65,10,1,1,53302,Point
442,2769,840,53,303,HEART BUTTE,1,48.212234,-112.63605,65,10,1,1,53303,Point
443,2770,840,53,304,SHELBY,1,48.566383,-111.579335,38,11,1,1,53304,Point
444,2771,840,53,305,GILDFORD,1,48.563091,-110.302392,38,11,1,1,53305,Point
445,2772,840,53,306,CHINOOK,1,48.515398,-109.212106,38,11,1,1,53306,Point
446,2773,840,53,307,ESTER LAKE,1,48.086536,-108.170308,38,11,1,1,53307,Point
447,2774,840,53,308,SACO,1,48.756557,-107.118909,38,11,1,1,53308,Point
448,2775,840,53,309,GLENTANA,1,48.968499,-106.194522,38,11,1,1,53309,Point
449,2776,840,53,310,WOLF POINT,1,48.073802,-105.538952,39,11,1,1,53310,Point
450,2777,840,53,311,WESTBY,1,48.968104,-104.189488,38,11,1,1,53311,Point
451,2778,840,53,312,SWAN LAKE,1,47.988936,-113.924161,64,10,1,1,53312,Point
452,2779,840,53,313,WOLF CREEK,1,47.027033,-112.050625,65,10,1,1,53313,Point
453,2780,840,53,314,SUN RIVER,1,47.542278,-111.703118,39,11,1,1,53314,Point
454,2781,840,53,315,RAYNESFORD,1,47.34627,-110.812857,65,10,1,1,53315,Point
455,2782,840,53,316,WINIFRED,1,47.561464,-109.375238,39,17,1,1,53316,Point
456,2783,840,53,317,WINNETT,1,47.074995,-108.123743,39,17,1,1,53317,Point
457,2784,840,53,318,JORDAN SOUTH,1,47.190675,-107.222999,39,17,1,1,53318,Point
458,2785,840,53,319,DINOSAURS H.M.,1,47.325598,-106.170658,39,17,1,1,53319,Point
459,2786,840,53,320,LINDSAY,1,47.225122,-105.166186,39,17,1,1,53320,Point
460,2787,840,53,321,LAMBERT,1,47.867572,-104.508263,39,11,1,1,53321,Point
461,2788,840,53,322,PHILIPSBURG,1,46.083917,-113.506882,64,10,1,1,53322,Point
462,2789,840,53,323,CLANCY,1,46.481362,-112.006589,65,10,1,1,53323,Point
463,2790,840,53,324,FREEMAN CREEK,0,46.881956,-111.358627,65,10,1,1,53324,Point
464,2791,840,53,325,PAGIL GULCH,1,46.885687,-110.25342,65,10,1,1,53325,Point
465,2792,840,53,326,MAYNARD COULEE,1,46.828793,-109.269751,39,17,1,1,53326,Point
466,2793,840,53,327,ROUNDUP,1,46.727405,-108.934038,39,17,1,1,53327,Point
467,2794,840,53,328,CUSTER,1,46.019353,-107.555504,39,17,1,1,53328,Point
468,2795,840,53,329,COLEMAN COULEE,1,46.990433,-106.268572,39,17,1,1,53329,Point
469,2796,840,53,330,MILES CITY,1,46.245982,-105.262831,39,17,1,1,53330,Point
470,2797,840,53,331,CABIN CREEK,1,46.785153,-104.613693,39,17,1,1,53331,Point
471,2798,840,53,332,BRUNZELL SLOUGH,1,45.12883,-112.172905,65,10,1,1,53332,Point
472,2799,840,53,333,Church Hill,1,45.743618,-111.244987,65,10,1,1,53333,Point
473,2800,840,53,334,CLYDE PARK,1,45.873837,-110.724565,65,10,1,1,53334,Point
474,2801,840,53,335,WHEAT BASIN,1,45.916148,-109.059699,39,17,1,1,53335,Point
475,2802,840,53,336,MUDDY CREEK,1,45.375107,-108.058769,64,10,1,1,53336,Point
476,2803,840,53,337,WYOLA,1,45.086184,-107.461601,39,17,1,1,53337,Point
477,2804,840,53,338,LAME DEER,1,45.623333,-106.666411,39,17,1,1,53338,Point
478,2805,840,53,339,CHUFFEY SPRING,1,45.540958,-105.826051,39,17,1,1,53339,Point
479,2806,840,53,340,HEHN DRAW,1,45.75894,-104.942069,39,17,1,1,53340,Point
480,2807,840,53,341,HEBGEN LAKE,1,44.852621,-111.062776,64,10,1,1,53341,Point
481,2808,840,53,424,Fort Logan,1,46.675705,-111.140722,65,10,1,1,53424,Point
482,2809,840,53,800,INSIDE ROAD,1,48.698669,-114.192977,64,10,1,3,53800,Point
483,2810,840,53,900,LOGAN PASS,1,48.691553,-113.53083,64,10,1,2,53900,Point
484,2811,840,53,901,VICTOR,1,46.331079,-114.172493,65,10,1,2,53901,Point
485,2812,840,53,902,THREEMILE WA,1,46.574991,-113.831439,65,10,1,2,53902,Point
486,2813,840,53,903,CRAMER CREEK,1,46.725682,-113.589985,65,10,1,2,53903,Point
487,2814,840,53,904,BRADMAN,0,46.700308,-113.223343,65,10,1,2,53904,Point
488,2815,840,53,905,GREENOUGH,0,47.030527,-113.236862,65,10,1,2,53905,Point
489,2816,840,53,906,ELEVATION MT,1,46.893511,-113.386702,65,10,1,2,53906,Point
490,2817,840,53,907,PRYOR MTN.,1,45.20504,-108.753875,64,10,1,2,53907,Point
491,2818,840,53,908,BULL MTN.,1,46.198835,-108.45115,39,17,1,2,53908,Point
492,2819,840,53,955,GREENOAGH 2,0,47.03072,-113.237262,65,10,1,2,53955,Point
493,2820,840,53,956,GREENOAGH 3,1,47.03072,-113.237261,65,10,1,2,53956,Point
494,2841,840,54,21,DALTON,1,41.352327,-102.973008,36,18,1,1,54021,Point
495,2850,840,54,30,AGATE,0,42.250372,-103.782922,36,18,1,1,54030,Point
496,2853,840,54,33,KIMBALL,1,41.248352,-103.663055,36,18,1,1,54033,Point
497,2856,840,54,36,BENKELMAN,1,40.057204,-101.549995,36,18,1,1,54036,Point
498,2859,840,54,39,CRESCENT LK,1,41.785872,-102.45794,36,19,1,1,54039,Point
499,2860,840,54,40,MURRAY LAKE,1,41.698025,-103.986809,36,18,1,1,54040,Point
500,2863,840,54,43,BEREA,1,42.180622,-102.781502,36,18,1,1,54043,Point
501,2864,840,54,44,CRAWFORD,1,42.607185,-103.583657,39,18,1,1,54044,Point
502,2870,840,54,130,AGATE 2,1,42.278965,-103.659906,36,18,1,1,54130,Point
503,2873,840,54,300,MARSLAND,1,42.278703,-103.522882,36,18,1,1,54300,Point
504,2874,840,54,301,HAY SPRINGS,1,42.371468,-102.711931,36,18,1,1,54301,Point
505,2881,840,54,308,BROWNSON,1,41.214452,-103.078241,36,18,1,1,54308,Point
506,2882,840,54,309,OSHKOSH,1,41.482214,-102.308867,36,18,1,1,54309,Point
507,2889,840,54,316,CHAMPION,1,40.36427,-101.665835,36,18,1,1,54316,Point
508,2896,840,54,900,OGLALA NAT. GRASS.,1,42.929844,-103.875342,39,17,1,2,54900,Point
509,2897,840,54,901,Pine Ridge,1,42.751942,-102.914749,39,18,1,2,54901,Point
510,2898,840,55,1,VYA,0,41.488249,-119.830399,89,9,1,1,55001,Point
511,2899,840,55,2,PIUTE MDWS,1,41.317188,-118.900406,80,9,1,1,55002,Point
512,2900,840,55,3,CALICO SPR,0,41.882338,-117.103486,88,9,1,1,55003,Point
513,2901,840,55,4,MIDAS,1,41.226382,-116.590034,88,9,1,1,55004,Point
514,2902,840,55,5,DINNER STA,0,41.070452,-115.900767,88,9,1,1,55005,Point
515,2903,840,55,6,RANCHOGRANDE,1,41.946098,-114.072808,88,9,1,1,55006,Point
516,2904,840,55,7,SAND PASS,1,40.263694,-119.77965,80,9,1,1,55007,Point
517,2905,840,55,8,RYE PATCH,0,40.479282,-118.332916,80,9,1,1,55008,Point
518,2906,840,55,9,FISH CREEK,1,40.168622,-117.187278,88,9,1,1,55009,Point
519,2907,840,55,10,CORTEZ,1,40.080283,-116.585888,88,9,1,1,55010,Point
520,2908,840,55,11,WALKER CAN,1,40.093521,-115.632413,88,9,1,1,55011,Point
521,2909,840,55,12,MIZPAH,1,40.328679,-114.802044,88,9,1,1,55012,Point
522,2910,840,55,13,SUTCLIFFE,0,39.769539,-119.548958,88,9,1,1,55013,Point
523,2911,840,55,14,FRENCHMAN,0,39.273807,-118.310119,80,9,1,1,55014,Point
524,2912,840,55,15,TOIYABE NF,1,39.004444,-117.466254,88,9,1,1,55015,Point
525,2913,840,55,16,EUREKA,1,39.551815,-116.387094,88,9,1,1,55016,Point
526,2914,840,55,17,ILLIPAH,1,39.362131,-115.270762,88,9,1,1,55017,Point
527,2915,840,55,18,MAJORS PLACE,1,39.207503,-114.497652,88,9,1,1,55018,Point
528,2916,840,55,19,GARDNERVILLE,0,39.00374,-119.84622,88,9,1,1,55019,Point
529,2917,840,55,20,THORNE,0,38.550198,-118.472145,80,9,1,1,55020,Point
530,2918,840,55,21,BIG SMOKEY V,0,38.80578,-117.104195,80,9,1,1,55021,Point
531,2919,840,55,22,DOBBIN CREEK,1,38.87796,-116.403374,88,9,1,1,55022,Point
532,2920,840,55,23,WILLIS,1,38.148121,-115.612409,88,9,1,1,55023,Point
533,2921,840,55,24,MINERVA,1,38.794618,-114.56044,88,9,1,1,55024,Point
534,2922,840,55,25,SILVER PEAK,0,37.755505,-117.63395,80,33,1,1,55025,Point
535,2923,840,55,27,HIKO,1,37.607561,-115.033684,80,9,1,1,55027,Point
536,2924,840,55,28,CALIENTE,1,37.695939,-114.746109,80,9,1,1,55028,Point
537,2925,840,55,29,BEATTY,1,36.907203,-116.761788,83,33,1,1,55029,Point
538,2926,840,55,30,ALAMO,0,36.988464,-115.256935,80,33,1,1,55030,Point
539,2928,840,55,32,JEAN LAKE,0,35.720443,-115.209404,83,33,1,1,55032,Point
540,2930,840,55,37,JARBIDGE,0,41.934718,-115.419136,88,9,1,1,55037,Point
541,2931,840,55,43,RUBY VALLEY,0,40.353437,-115.627762,88,9,1,1,55043,Point
542,2932,840,55,45,NIXON,1,39.943255,-119.383475,88,9,1,1,55045,Point
543,2933,840,55,46,Charleston Reservoir,1,41.535093,-115.832044,88,9,1,1,55046,Point
544,2934,840,55,101,BALD MTN.,1,41.833551,-119.669611,89,9,1,1,55101,Point
545,2935,840,55,103,CHIMNEY RES.,1,41.417743,-117.450314,88,9,1,1,55103,Point
546,2936,840,55,108,OREANA,0,40.466957,-118.312789,88,9,1,1,55108,Point
547,2937,840,55,114,FALLON,1,39.40201,-118.725525,80,9,1,1,55114,Point
548,2938,840,55,119,GARDNERVILLE 2,1,39.00374,-119.84621,88,9,1,1,55119,Point
549,2939,840,55,120,HAWTHORNE,0,38.644262,-118.754677,88,9,1,1,55120,Point
550,2940,840,55,121,DARROUGHS HOT SPGS,1,38.893184,-117.19377,80,9,1,1,55121,Point
551,2941,840,55,125,SILVER PEAK 2,1,37.755505,-117.63395,80,33,1,1,55125,Point
552,2942,840,55,130,DESERT NWR,1,36.947796,-115.276359,80,9,1,1,55130,Point
553,2943,840,55,132,SANDY VALLEY,1,35.8503,-115.551787,83,33,1,1,55132,Point
554,2944,840,55,137,Jarbidge 2,1,41.934718,-115.419135,88,9,1,1,55137,Point
555,2945,840,55,143,RUBY VALLEY 2,1,40.179873,-115.492923,88,9,1,1,55143,Point
556,2946,840,55,208,MILL CITY,1,40.653659,-118.00395,88,9,1,1,55208,Point
557,2947,840,55,901,COMINS LAKE,0,39.159861,-114.802524,88,9,1,2,55901,Point
558,2948,840,55,902,HUMBOLDT NF,1,41.788993,-115.952179,88,9,1,2,55902,Point
559,2949,840,55,903,SHELDON NWR,1,41.590519,-119.305367,89,9,1,2,55903,Point
560,2950,840,55,904,CARSON RIVER,0,39.302857,-119.254898,80,9,1,2,55904,Point
561,2951,840,55,905,AUSTIN,1,39.20772,-117.092675,88,9,1,2,55905,Point
562,2952,840,55,906,ASH MEADOWS,1,36.490731,-116.343208,83,33,1,2,55906,Point
563,2953,840,55,907,VIRGIN CREEK,1,41.772307,-119.119935,89,9,1,2,55907,Point
564,2954,840,55,908,MEADOW VALLY,1,37.609712,-114.522078,88,9,1,2,55908,Point
565,2955,840,55,909,Carson River 2,0,39.3,-119.26666,80,9,1,2,55909,Point
566,3129,840,60,1,FARMINGTON,0,36.771195,-108.110618,84,16,1,1,60001,Point
567,3130,840,60,2,NAGEESI,1,36.16761,-107.701362,87,16,1,1,60002,Point
568,3131,840,60,3,CEBOLLA,1,36.520013,-106.336053,62,16,1,1,60003,Point
569,3132,840,60,4,OJO SARCO,1,36.079784,-105.797585,62,16,1,1,60004,Point
570,3135,840,60,7,CROWNPOINT,0,35.783463,-108.057061,87,16,1,1,60007,Point
571,3136,840,60,8,TORREON,1,35.784011,-107.264649,87,16,1,1,60008,Point
572,3137,840,60,9,LA CIENEGA,1,35.52337,-106.059272,87,16,1,1,60009,Point
573,3138,840,60,10,PECOS,1,35.574349,-105.675599,84,16,1,1,60010,Point
574,3142,840,60,14,CORREO,0,34.855592,-107.386688,87,16,1,1,60014,Point
575,3160,840,60,51,SHIPROCK,1,36.606963,-108.921468,87,16,1,1,60051,Point
576,3161,840,60,52,COUNSELOR,1,36.432704,-107.479416,87,16,1,1,60052,Point
577,3162,840,60,53,STINKING LK.,0,36.617257,-106.9011,84,16,1,1,60053,Point
578,3163,840,60,54,ANGEL FIRE,0,36.429871,-105.29927,62,16,1,1,60054,Point
579,3166,840,60,57,MCGAFFEY,1,35.292195,-108.910718,87,16,1,1,60057,Point
580,3167,840,60,58,MT. TAYLOR,0,35.446312,-107.443337,84,16,1,1,60058,Point
581,3168,840,60,59,VALLECITOS,1,35.746631,-106.779464,84,16,1,1,60059,Point
582,3192,840,60,83,Newcomb,1,36.27817,-108.817965,87,16,1,1,60083,Point
583,3193,840,60,101,AZTEC,0,36.74546,-108.147477,84,16,1,1,60101,Point
584,3194,840,60,107,BLUEWATER LAKE,1,35.266677,-108.123979,84,16,1,1,60107,Point
585,3197,840,60,114,CERRO VERDE,1,34.869974,-107.246697,87,16,1,1,60114,Point
586,3203,840,60,153,DULCE,1,36.619154,-106.900371,84,16,1,1,60153,Point
587,3204,840,60,154,Angel Fire 2,1,36.335034,-105.29169,62,16,1,1,60154,Point
588,3206,840,60,158,MT. TAYLOR 2,1,35.446312,-107.443336,84,16,1,1,60158,Point
589,3210,840,60,201,LA PLATA,0,36.833885,-108.010155,84,16,1,1,60201,Point
590,3213,840,60,301,LA PLATA 2,0,36.833885,-108.010155,84,16,1,1,60301,Point
591,3482,840,64,21,DICKINSON,1,46.948474,-102.851952,39,17,1,1,64021,Point
592,3486,840,64,25,TOBACCO,1,48.114362,-103.125056,39,17,1,1,64025,Point
593,3491,840,64,30,BOWMAN,1,46.198459,-103.431806,39,17,1,1,64030,Point
594,3493,840,64,32,GORHAM,1,47.23406,-103.321358,39,17,1,1,64032,Point
595,3494,840,64,33,ROOSEVELT PK,1,47.617128,-103.545098,39,17,1,1,64033,Point
596,3496,840,64,35,GOLVA,1,46.730988,-103.986594,39,17,1,1,64035,Point
597,3970,840,69,3,SHELLROCK,1,45.078728,-121.921814,67,5,1,1,69003,Point
598,3971,840,69,4,LONE ROCK,1,45.446254,-120.702499,89,9,1,1,69004,Point
599,3972,840,69,5,ORDNANCE,0,45.798816,-119.41433,89,9,1,1,69005,Point
600,3973,840,69,6,ALBEE,1,45.223828,-118.909523,65,10,1,1,69006,Point
601,3974,840,69,7,FLORA,1,45.649045,-117.275394,65,10,1,1,69007,Point
602,3975,840,69,8,IMNAHA,1,45.72192,-116.779595,65,9,1,1,69008,Point
603,3977,840,69,10,COOL CAMP,0,44.474035,-122.228053,67,5,1,1,69010,Point
604,3978,840,69,11,DESCHUTES,1,44.159809,-121.273705,85,9,1,1,69011,Point
605,3979,840,69,12,OCHOCO,0,44.499017,-120.44484,65,10,1,1,69012,Point
606,3980,840,69,13,LOGDELL,1,44.216856,-119.24085,65,10,1,1,69013,Point
607,3981,840,69,14,WICKIUP,1,44.132867,-118.587769,65,10,1,1,69014,Point
608,3982,840,69,15,BRIDGEPORT,1,44.502076,-117.97049,65,10,1,1,69015,Point
609,3986,840,69,20,DELL SPRING,0,43.564075,-121.668671,67,9,1,1,69020,Point
610,3987,840,69,21,FANDANGO CAN,1,43.164966,-120.663782,89,9,1,1,69021,Point
611,3988,840,69,22,WAGONTIRE,1,43.339003,-119.696796,89,9,1,1,69022,Point
612,3989,840,69,23,BUCHANAN,1,43.69349,-118.535524,65,9,1,1,69023,Point
613,3990,840,69,24,CROWLEY,1,43.287768,-117.813742,89,9,1,1,69024,Point
614,3994,840,69,28,MODOC POINT,1,42.373981,-121.80488,85,9,1,1,69028,Point
615,3995,840,69,29,PAISLEY,1,42.668865,-120.793358,85,9,1,1,69029,Point
616,3996,840,69,30,BLITZEN,0,42.954636,-119.015763,89,9,1,1,69030,Point
617,3997,840,69,31,ALVORD LAKE,1,42.34767,-118.648889,89,9,1,1,69031,Point
618,3998,840,69,32,WILLOW SPG,0,42.437218,-117.676972,89,9,1,1,69032,Point
619,4001,840,69,35,JOSEPH,1,45.280921,-117.206268,65,9,1,1,69035,Point
620,4002,840,69,36,EAGLE ROCK,0,44.179154,-120.625176,65,10,1,1,69036,Point
621,4003,840,69,38,SPARTA,1,44.829653,-117.524208,65,10,1,1,69038,Point
622,4004,840,69,39,BARNES VAL,0,42.15614,-120.936417,85,9,1,1,69039,Point
623,4006,840,69,41,GARFIELD,1,45.255247,-122.256369,98,5,1,1,69041,Point
624,4008,840,69,43,MT HOOD,1,45.537845,-121.483437,67,9,1,1,69043,Point
625,4009,840,69,44,MONTAGUE,1,45.64576,-120.082642,89,9,1,1,69044,Point
626,4010,840,69,45,EIGHTMILE,1,45.071378,-119.874901,89,9,1,1,69045,Point
627,4011,840,69,46,PENDLETON,1,45.679374,-118.750122,89,9,1,1,69046,Point
628,4012,840,69,47,CAMP SHERMAN,0,44.496953,-121.781388,67,9,1,1,69047,Point
629,4013,840,69,48,MOUNT VERNON,1,44.417196,-119.113419,65,10,1,1,69048,Point
630,4014,840,69,49,GRANITE,1,44.913449,-118.400622,65,10,1,1,69049,Point
631,4017,840,69,52,ELK LAKE,1,43.985125,-121.80484,67,5,1,1,69052,Point
632,4018,840,69,53,CLOVER CREEK,1,43.839247,-120.197913,89,10,1,1,69053,Point
633,4019,840,69,54,SILVER CREEK,1,43.701105,-119.628303,65,10,1,1,69054,Point
634,4020,840,69,55,PRINCETON,0,43.247433,-118.582374,89,9,1,1,69055,Point
635,4021,840,69,56,ADRIAN,1,43.67157,-117.083565,89,9,1,1,69056,Point
636,4025,840,69,60,BLY,0,42.441441,-121.017136,85,9,1,1,69060,Point
637,4026,840,69,61,BLIZZARD GAP,1,42.014752,-119.478005,89,9,1,1,69061,Point
638,4027,840,69,62,FISH LAKE,1,42.957667,-118.867798,89,9,1,1,69062,Point
639,4028,840,69,63,BATTLE MTN,1,42.211505,-117.771141,89,9,1,1,69063,Point
640,4029,840,69,64,LOOKOUT LAKE,0,42.363042,-117.081162,89,9,1,1,69064,Point
641,4030,840,69,105,UMATILLA,1,45.916239,-119.558899,89,9,1,1,69105,Point
642,4031,840,69,112,HASH ROCK,1,44.49906,-120.444877,65,10,1,1,69112,Point
643,4033,840,69,120,DAVIS LAKE,1,43.593776,-121.833186,67,9,1,1,69120,Point
644,4035,840,69,130,BLITZEN 2,1,42.954209,-119.01495,89,9,1,1,69130,Point
645,4036,840,69,136,SUMMIT PR,1,44.341704,-120.561716,65,10,1,1,69136,Point
646,4037,840,69,139,LAPHAM RES.,1,42.142953,-120.922554,85,9,1,1,69139,Point
647,4039,840,69,147,WIZARD FALLS,1,44.491917,-121.793871,67,9,1,1,69147,Point
648,4040,840,69,155,MALHEUR NWR,1,43.24742,-118.582428,89,9,1,1,69155,Point
649,4042,840,69,160,Bly  2,1,42.38999,-121.01745,85,9,1,1,69160,Point
650,4043,840,69,164,ROME,1,42.837636,-117.632271,89,9,1,1,69164,Point
651,4045,840,69,202,CANBY,1,45.294616,-122.701849,98,5,1,1,69202,Point
652,4046,840,69,203,BADGER CREEK,1,45.222007,-121.379884,67,9,1,1,69203,Point
653,4047,840,69,204,MIKKALO,1,45.400155,-120.025566,89,9,1,1,69204,Point
654,4048,840,69,205,CECIL,1,45.617844,-119.956071,89,9,1,1,69205,Point
655,4049,840,69,206,HOWARD MDWS.,1,45.163196,-118.215581,65,10,1,1,69206,Point
656,4050,840,69,207,TROY,1,45.945961,-117.451416,65,10,1,1,69207,Point
657,4051,840,69,208,HELLS CANYON,1,44.910349,-116.951062,65,10,1,1,69208,Point
658,4053,840,69,210,BLUE RIVER,1,44.295309,-122.288757,67,5,1,1,69210,Point
659,4054,840,69,211,MADRAS,1,44.628295,-121.058619,89,10,1,1,69211,Point
660,4055,840,69,212,OCHOCO,1,44.461661,-120.121067,65,10,1,1,69212,Point
661,4056,840,69,213,BARNHOUSE,1,44.522137,-119.927933,65,10,1,1,69213,Point
662,4057,840,69,214,UNITY,1,44.480859,-118.226036,65,10,1,1,69214,Point
663,4058,840,69,215,NEWBRIDGE,1,44.798392,-117.187625,65,10,1,1,69215,Point
664,4061,840,69,219,WARNER MTN.,1,43.639793,-122.305939,67,5,1,1,69219,Point
665,4062,840,69,220,BALD MTN.,1,43.165339,-121.266449,85,9,1,1,69220,Point
666,4063,840,69,221,GREEN MTN.,1,43.307153,-120.640259,89,9,1,1,69221,Point
667,4064,840,69,222,HARNEY LAKE,1,43.210636,-119.015968,89,9,1,1,69222,Point
668,4065,840,69,223,CRANE,1,43.586626,-118.589746,89,9,1,1,69223,Point
669,4066,840,69,224,QUARTZ MTN.,0,43.69444,-117.393606,89,9,1,1,69224,Point
670,4070,840,69,228,MERRILL,1,42.267629,-121.486843,85,9,1,1,69228,Point
671,4071,840,69,229,PICTURE FLAT,1,42.345034,-120.74952,85,9,1,1,69229,Point
672,4072,840,69,230,WARNER VALLY,1,42.61887,-119.673693,89,9,1,1,69230,Point
673,4073,840,69,231,CATLOW RIM,1,42.65579,-118.988625,89,9,1,1,69231,Point
674,4074,840,69,232,BOWDEN HILLS,1,42.43719,-117.676895,89,9,1,1,69232,Point
675,4076,840,69,234,BLACK MTN.,0,45.686996,-118.248787,65,10,1,1,69234,Point
676,4077,840,69,235,EAGLE CREEK,1,45.080723,-117.312502,65,10,1,1,69235,Point
677,4080,840,69,238,SISTERS,1,44.391916,-121.521559,85,9,1,1,69238,Point
678,4081,840,69,239,DONNYBROOK,0,44.597647,-120.21514,89,10,1,1,69239,Point
679,4082,840,69,240,MONUMENT,1,44.823061,-119.427231,65,10,1,1,69240,Point
680,4083,840,69,241,DESOLATION,1,44.977968,-118.909076,65,10,1,1,69241,Point
681,4084,840,69,242,MALHEUR RES.,1,44.063083,-117.784081,89,10,1,1,69242,Point
682,4087,840,69,245,PAUNINA,1,43.275633,-121.773873,85,9,1,1,69245,Point
683,4088,840,69,246,CROOKED RIV.,1,43.967929,-120.164322,89,9,1,1,69246,Point
684,4089,840,69,247,DONNELLY,0,43.850771,-119.530708,65,10,1,1,69247,Point
685,4090,840,69,248,SILVIES,1,44.001772,-118.84922,65,10,1,1,69248,Point
686,4091,840,69,249,SHEAVILLE,1,43.330197,-117.08403,89,9,1,1,69249,Point
687,4094,840,69,252,CHINCHALO,1,42.867563,-121.831536,85,9,1,1,69252,Point
688,4095,840,69,253,LAKEVIEW,1,42.062483,-120.159989,85,9,1,1,69253,Point
689,4096,840,69,254,FLOOK LAKE,1,42.577978,-119.587848,89,9,1,1,69254,Point
690,4097,840,69,255,TROUT CREEK,1,42.002361,-118.633652,89,9,1,1,69255,Point
691,4098,840,69,256,THREE FORKS,1,42.526183,-117.175124,89,9,1,1,69256,Point
692,4100,840,69,334,KAMELA,1,45.209622,-118.50063,65,10,1,1,69334,Point
693,4102,840,69,339,Twickenham,1,44.669185,-120.12219,89,10,1,1,69339,Point
694,4103,840,69,347,DONELLY 2,1,43.793723,-119.317095,65,10,1,1,69347,Point
695,4106,840,69,900,SANDY RIVER,0,45.497005,-122.286832,98,5,1,2,69900,Point
696,4107,840,69,901,MOLALLA,1,45.04672,-122.49004,93,5,1,2,69901,Point
697,4109,840,69,903,SANTIAM,1,44.604541,-122.455093,93,5,1,2,69903,Point
698,4111,840,69,905,ZUMWALT,0,45.430726,-117.115379,65,9,1,2,69905,Point
699,4112,840,69,906,Bull Run,1,45.425643,-122.223838,93,5,1,2,69906,Point
700,4709,840,81,27,ROUBAIX LK,0,44.208134,-103.653336,61,17,1,1,81027,Point
701,4710,840,81,28,VOLUNTEER,1,44.511876,-103.133331,39,17,1,1,81028,Point
702,4711,840,81,29,CUSTER,1,43.820458,-103.640174,61,17,1,1,81029,Point
703,4713,840,81,31,HARDING,1,45.234124,-103.782366,39,17,1,1,81031,Point
704,4718,840,81,36,REVA,1,45.545678,-103.032788,39,17,1,1,81036,Point
705,4719,840,81,37,LODGEPOLE,1,45.834433,-102.94268,39,17,1,1,81037,Point
706,4724,840,81,42,ARDMORE,1,43.1155,-103.680206,39,17,1,1,81042,Point
707,4728,840,81,46,PLEASANT VAL,1,43.586979,-103.728463,61,17,1,1,81046,Point
708,4729,840,81,47,HILL CITY,1,43.925068,-103.514534,61,17,1,1,81047,Point
709,4730,840,81,48,BLACK FOX,1,44.102739,-103.896992,61,17,1,1,81048,Point
710,4731,840,81,49,ENGLEWOOD,1,44.259156,-103.84047,61,17,1,1,81049,Point
711,4732,840,81,50,LONG DRAW,1,44.182394,-103.894827,61,17,1,1,81050,Point
712,4735,840,81,127,SILVER CITY,0,44.208054,-103.653328,61,17,1,1,81127,Point
713,4736,840,81,702,NORBECK,1,43.810974,-103.593022,61,17,1,1,81702,Point
714,4737,840,81,703,ELK MOUNTAIN,1,43.782471,-104.03969,61,17,1,1,81703,Point
715,4738,840,81,704,ROCHFORD,1,44.123028,-103.698033,61,17,1,1,81704,Point
716,4739,840,81,705,HAZELRODT,1,43.726052,-103.505933,61,17,1,1,81705,Point
717,4740,840,81,706,LIGHTNING CR,1,43.812229,-103.766725,61,17,1,1,81706,Point
718,4741,840,81,900,PIONEER,1,43.297404,-103.169098,39,17,1,2,81900,Point
719,4742,840,81,901,COTTONWOOD,1,43.361959,-103.922874,39,17,1,2,81901,Point
720,4743,840,81,907,S. PIONEER,1,43.187745,-103.169411,39,17,1,2,81907,Point
721,4744,840,81,908,INDIAN,1,43.02138,-103.668613,39,17,1,2,81908,Point
722,4745,840,81,909,RAILROAD BUTTE,1,43.918866,-102.920334,39,17,1,2,81909,Point
723,4746,840,81,910,FRENCH CREEK,0,43.665136,-102.870911,39,17,1,2,81910,Point
724,4747,840,81,911,WIND CAVE NP,1,43.520047,-103.472852,61,17,1,2,81911,Point
725,5049,840,85,1,WENDOVER,0,41.437939,-113.108788,80,9,1,1,85001,Point
726,5050,840,85,2,PROMONTORY,1,41.258766,-112.495499,88,9,1,1,85002,Point
727,5051,840,85,3,HYRUM,0,41.627268,-111.803666,84,9,1,1,85003,Point
728,5052,840,85,4,SALT SPRINGS,1,40.459142,-114.028649,80,9,1,1,85004,Point
729,5053,840,85,5,TIMPIE SPG,0,40.746385,-112.652801,80,9,1,1,85005,Point
730,5054,840,85,6,BECK,0,40.046658,-111.281227,62,16,1,1,85006,Point
731,5055,840,85,7,ALTONAH,1,40.480664,-110.398659,84,16,1,1,85007,Point
732,5056,840,85,8,GRIZZLY RDGE,1,40.72348,-109.470214,62,16,1,1,85008,Point
733,5057,840,85,9,NOTCH PEAK,1,39.126912,-113.519678,80,9,1,1,85009,Point
734,5058,840,85,10,OAK CITY,1,39.354972,-112.227806,88,9,1,1,85010,Point
735,5059,840,85,11,GOSHEN,1,39.900444,-111.954377,88,9,1,1,85011,Point
736,5060,840,85,12,DRAGERTON,1,39.597296,-110.560639,87,16,1,1,85012,Point
737,5061,840,85,13,WILLOW CREEK,1,39.973904,-109.652061,87,16,1,1,85013,Point
738,5062,840,85,14,STOCK RES,1,38.478842,-113.432541,80,9,1,1,85014,Point
739,5063,840,85,15,BEAVER,1,38.20414,-112.646248,84,16,1,1,85015,Point
740,5064,840,85,16,DESERT VIEW,1,38.474036,-111.353958,87,16,1,1,85016,Point
741,5065,840,85,17,HANKSVILLE,1,38.372859,-110.711815,87,16,1,1,85017,Point
742,5066,840,85,18,CASTLETON,0,38.583333,-109.333333,87,16,1,1,85018,Point
743,5067,840,85,19,IRON SPRINGS,1,37.794298,-113.458618,88,9,1,1,85019,Point
744,5068,840,85,20,NAVAJO LAKE,1,37.414043,-112.799833,62,16,1,1,85020,Point
745,5069,840,85,21,BOULDER,1,37.92764,-111.187005,87,16,1,1,85021,Point
746,5070,840,85,22,HITE,1,37.886721,-110.36744,87,16,1,1,85022,Point
747,5071,840,85,23,ANETH,1,37.21088,-109.172775,87,16,1,1,85023,Point
748,5072,840,85,24,LYNN,1,41.966777,-113.630928,88,9,1,1,85024,Point
749,5073,840,85,25,GROUSE CREEK,1,41.704573,-113.890663,88,9,1,1,85025,Point
750,5074,840,85,34,SKYLINE DRIV,1,39.591925,-111.264633,62,16,1,1,85034,Point
751,5075,840,85,101,WENDOVER 2,1,41.437939,-113.10878,80,9,1,1,85101,Point
752,5076,840,85,102,JOHNSON CAN,1,41.892996,-112.205712,80,9,1,1,85102,Point
753,5077,840,85,103,ANT FLAT-OGDEN CAN,1,41.576045,-111.563537,62,16,1,1,85103,Point
754,5078,840,85,104,GOLD HILL,1,40.035849,-113.983581,80,9,1,1,85104,Point
755,5079,840,85,105,FAIRFIELD,1,40.072165,-112.09533,88,9,1,1,85105,Point
756,5080,840,85,106,UINTAH NF,0,40.278812,-111.218865,62,16,1,1,85106,Point
757,5081,840,85,107,WASATCH NF,1,40.875382,-110.831703,62,16,1,1,85107,Point
758,5082,840,85,108,JENSEN,1,40.369882,-109.330948,87,16,1,1,85108,Point
759,5083,840,85,109,FISH SPRINGS,1,39.610741,-113.483711,80,9,1,1,85109,Point
760,5084,840,85,110,DELTA,1,39.374323,-112.576813,80,9,1,1,85110,Point
761,5085,840,85,112,CLEVELAND,1,39.08227,-110.664902,87,16,1,1,85112,Point
762,5086,840,85,113,BONANZA,1,40.015512,-109.171273,87,16,1,1,85113,Point
763,5087,840,85,114,WAH WAH,1,38.811491,-113.693047,88,9,1,1,85114,Point
764,5088,840,85,115,FISH LAKE NF,1,38.490885,-112.001686,62,16,1,1,85115,Point
765,5089,840,85,116,NOTOM,1,38.28366,-111.129097,87,16,1,1,85116,Point
766,5090,840,85,117,GLEN CANYON,1,38.472881,-110.280609,87,16,1,1,85117,Point
767,5091,840,85,118,CANYONLANDS,1,38.736414,-109.879997,87,16,1,1,85118,Point
768,5092,840,85,119,BERYL,1,37.896257,-113.65799,88,9,1,1,85119,Point
769,5093,840,85,120,MOQUITH MTN,1,37.00004,-112.861931,87,16,1,1,85120,Point
770,5094,840,85,121,MAIN CANYON,1,37.821775,-111.843513,84,16,1,1,85121,Point
771,5095,840,85,122,CANE SPR DES,1,37.575692,-110.712449,87,16,1,1,85122,Point
772,5096,840,85,123,BLANDING,1,37.674896,-109.403702,87,16,1,1,85123,Point
773,5097,840,85,151,KELTON,0,41.746545,-113.110443,80,9,1,1,85151,Point
774,5098,840,85,152,BEAR RIVER,1,41.582144,-112.083939,88,9,1,1,85152,Point
775,5099,840,85,153,RANDOLPH,1,41.723833,-111.338813,86,10,1,1,85153,Point
776,5100,840,85,155,VERNON,1,40.01226,-112.459205,88,9,1,1,85155,Point
777,5101,840,85,156,SOAPSTONE,1,40.581571,-111.04834,62,16,1,1,85156,Point
778,5102,840,85,157,MOON LAKE,0,40.550922,-110.731385,62,16,1,1,85157,Point
779,5103,840,85,158,M WARNER RES,1,40.858327,-109.257928,84,16,1,1,85158,Point
780,5104,840,85,159,CALLAO,1,39.879235,-113.267143,80,9,1,1,85159,Point
781,5105,840,85,160,LEAMINGTON,1,39.499185,-112.268974,84,9,1,1,85160,Point
782,5106,840,85,161,FAYETTE,1,39.239858,-111.859001,84,16,1,1,85161,Point
783,5107,840,85,162,CASTLE DALE,1,39.220914,-110.997841,87,16,1,1,85162,Point
784,5108,840,85,163,HILL CREEK,0,39.548786,-109.741402,84,16,1,1,85163,Point
785,5109,840,85,164,INDIAN PEAK,1,38.528664,-113.672203,88,9,1,1,85164,Point
786,5110,840,85,165,RICHFIELD,1,38.778015,-112.108314,62,16,1,1,85165,Point
787,5111,840,85,166,GOOSEBERRY,1,38.914786,-111.741363,62,16,1,1,85166,Point
788,5112,840,85,167,GILSON BUTTE,0,38.630794,-110.566712,87,16,1,1,85167,Point
789,5113,840,85,168,LA SAL,0,38.447078,-109.386055,84,16,1,1,85168,Point
790,5114,840,85,169,SHIVWITZ,1,37.069077,-113.77005,88,16,1,1,85169,Point
791,5115,840,85,170,DIXIE NF,1,37.459724,-112.324051,62,16,1,1,85170,Point
792,5116,840,85,171,GLEN CANYON,1,37.077518,-111.662423,87,16,1,1,85171,Point
793,5117,840,85,172,LAKE POWELL,1,37.465604,-110.708909,87,16,1,1,85172,Point
794,5118,840,85,173,HATCH,1,37.392714,-109.225525,87,16,1,1,85173,Point
795,5119,840,85,174,Beck 2,1,40.046658,-111.28122,62,16,1,1,85174,Point
796,5120,840,85,203,HARDWARE RANCH,1,41.624777,-111.794282,84,9,1,1,85203,Point
797,5121,840,85,206,HEBER MTN.,1,40.244062,-111.156692,62,16,1,1,85206,Point
798,5122,840,85,218,MOAB,1,38.682181,-109.477326,87,16,1,1,85218,Point
799,5123,840,85,251,PEPLIN MOUNTAIN,1,41.654896,-113.180313,80,9,1,1,85251,Point
800,5124,840,85,257,MOON LAKE 2,1,40.550756,-110.730757,62,16,1,1,85257,Point
801,5125,840,85,263,BOOK RIDGE,1,39.234033,-109.20575,84,16,1,1,85263,Point
802,5126,840,85,267,GILSON BUTTE 2,1,38.63046,-110.566551,87,16,1,1,85267,Point
803,5127,840,85,268,La Sal 2,0,38.45,-109.38333,84,16,1,1,85268,Point
804,5128,840,85,301,GOOSE CREEK MTN.,1,41.844559,-113.794419,88,9,1,1,85301,Point
805,5129,840,85,302,SNOWVILLE,1,41.89274,-112.776001,80,9,1,1,85302,Point
806,5130,840,85,303,BROWNS HOLE,0,41.341945,-111.670716,88,16,1,1,85303,Point
807,5131,840,85,304,CLIVE,1,40.765123,-113.10083,80,9,1,1,85304,Point
808,5132,840,85,305,GRANTSVILLE,1,40.599903,-112.480637,80,9,1,1,85305,Point
809,5133,840,85,306,KAMAS,1,40.636006,-111.314293,62,16,1,1,85306,Point
810,5134,840,85,307,HANNA,1,40.460659,-110.892594,84,16,1,1,85307,Point
811,5135,840,85,308,VERNAL,1,40.588849,-109.054855,84,16,1,1,85308,Point
812,5136,840,85,309,GANDY,1,39.223763,-114.000824,88,9,1,1,85309,Point
813,5137,840,85,310,JERICHO JUNCTION,1,39.660492,-112.063949,88,9,1,1,85310,Point
814,5138,840,85,311,FERRON,1,39.322246,-111.442668,62,16,1,1,85311,Point
815,5139,840,85,312,WELLINGTON,0,39.672307,-110.627861,87,16,1,1,85312,Point
816,5140,840,85,313,WESTWATER,1,39.081914,-109.12426,87,16,1,1,85313,Point
817,5141,840,85,314,TULE VALLEY,1,39.013426,-113.374054,80,9,1,1,85314,Point
818,5142,840,85,315,PINE CREEK,1,38.516098,-112.605576,88,9,1,1,85315,Point
819,5143,840,85,316,BICKNELL,1,38.309675,-111.518173,84,16,1,1,85316,Point
820,5144,840,85,317,GREEN RIVER,1,38.981541,-110.167007,87,16,1,1,85317,Point
821,5145,840,85,318,CANYON RIMS,1,38.188284,-109.415787,87,16,1,1,85318,Point
822,5146,840,85,319,NEWCASTLE,1,37.661653,-113.548267,88,9,1,1,85319,Point
823,5147,840,85,320,ALTON,1,37.325095,-112.456046,84,16,1,1,85320,Point
824,5148,840,85,321,ESCALANTE,1,37.769533,-111.665451,84,16,1,1,85321,Point
825,5149,840,85,322,BULLFROG BAY,1,37.520677,-110.725425,87,16,1,1,85322,Point
826,5150,840,85,323,MONTICELLO,1,37.902765,-109.509789,87,16,1,1,85323,Point
827,5151,840,85,368,La Sal 3,1,38.447119,-109.38558,84,16,1,1,85368,Point
828,5152,840,85,412,Wellington 2,0,39.672307,-110.62786,87,16,1,1,85412,Point
829,5153,840,85,512,Wellington 3,1,39.672307,-110.62786,87,16,1,1,85512,Point
830,5154,840,85,901,NEPONSET RES,1,41.275578,-111.201989,86,10,1,2,85901,Point
831,5155,840,85,902,LOST CR. RES,1,41.327902,-111.327583,62,16,1,2,85902,Point
832,5156,840,85,903,SALERATUS CR,1,41.261311,-111.178794,86,10,1,2,85903,Point
833,5157,840,85,904,E. BEAR LAKE,1,41.824467,-111.293557,86,10,1,2,85904,Point
834,5158,840,85,905,ARCHES NP,0,38.61666,-109.617073,87,16,1,2,85905,Point
835,5159,840,85,906,LOGAN CANYON,1,41.801775,-111.560043,62,16,1,2,85906,Point
836,5160,840,85,907,RED SPUR MTN.,1,41.639848,-111.318413,62,16,1,2,85907,Point
837,5161,840,85,908,BRYCE CANYON,1,37.658174,-112.093544,84,16,1,2,85908,Point
838,5162,840,85,909,WOODRUFF,1,41.524161,-111.162996,86,10,1,2,85909,Point
839,5163,840,85,910,CRAWFORD MTS,1,41.690833,-111.075278,86,10,1,2,85910,Point
840,5164,840,85,912,CANYONLANDS,0,38.544636,-109.764069,87,16,1,2,85912,Point
841,5282,840,89,4,NEWHALEM,1,48.700425,-121.212281,67,9,1,1,89004,Point
842,5283,840,89,5,TWISP,1,48.355069,-120.211845,85,9,1,1,89005,Point
843,5284,840,89,6,BREWSTER,1,48.093627,-119.80619,89,9,1,1,89006,Point
844,5285,840,89,7,KELLER,0,48.054218,-118.540153,64,10,1,1,89007,Point
845,5286,840,89,8,CHEWELAH,1,48.290566,-117.77745,64,10,1,1,89008,Point
846,5290,840,89,12,INDEX,0,47.857807,-121.498756,67,9,1,1,89012,Point
847,5291,840,89,13,ARDENVOIR,0,47.750616,-120.355217,85,9,1,1,89013,Point
848,5292,840,89,14,MOSES LAKE,1,47.087172,-119.257652,89,9,1,1,89014,Point
849,5293,840,89,15,HARRINGTON,1,47.339908,-118.145317,89,9,1,1,89015,Point
850,5294,840,89,16,REARDAN,1,47.730577,-117.928078,65,9,1,1,89016,Point
851,5296,840,89,18,COUGAR,1,46.008365,-122.344841,67,5,1,1,89018,Point
852,5297,840,89,19,RIMROCK,1,46.638704,-121.390282,67,9,1,1,89019,Point
853,5298,840,89,20,WAPATO,1,46.390044,-120.460137,89,9,1,1,89020,Point
854,5299,840,89,21,MERCER,1,46.059969,-119.990158,89,9,1,1,89021,Point
855,5300,840,89,22,CONNELL,1,46.429488,-118.825584,89,9,1,1,89022,Point
856,5301,840,89,23,ASOTIN,1,46.341713,-117.055985,65,9,1,1,89023,Point
857,5302,840,89,24,CAMAS,0,45.686796,-122.444954,98,5,1,1,89024,Point
858,5303,840,89,25,SNOWDEN,1,45.833136,-121.353302,85,9,1,1,89025,Point
859,5304,840,89,26,BICKLETON,1,45.966667,-120.25,89,9,1,1,89026,Point
860,5307,840,89,29,WINTHROP,1,48.509179,-120.173264,67,9,1,1,89029,Point
861,5308,840,89,30,TONASKET,1,48.723046,-119.272057,85,9,1,1,89030,Point
862,5309,840,89,31,TWIN LAKES,1,48.229505,-118.702423,64,10,1,1,89031,Point
863,5310,840,89,32,CUSICK,1,48.385635,-117.2724,64,10,1,1,89032,Point
864,5313,840,89,35,RONALD,1,47.227459,-121.013649,67,9,1,1,89035,Point
865,5314,840,89,36,LEAVENWORTH,1,47.553499,-120.680207,85,9,1,1,89036,Point
866,5315,840,89,37,QUINCY,1,47.315177,-119.879478,89,9,1,1,89037,Point
867,5316,840,89,38,WILBUR,1,47.771735,-118.89447,89,9,1,1,89038,Point
868,5317,840,89,39,EWAN,1,47.076058,-117.733589,65,9,1,1,89039,Point
869,5321,840,89,43,PACKWOOD,1,46.402456,-121.555451,67,5,1,1,89043,Point
870,5322,840,89,44,ELLENSBURG,1,46.955438,-120.569954,85,9,1,1,89044,Point
871,5323,840,89,45,OTHELLO,0,46.912477,-119.368653,89,9,1,1,89045,Point
872,5324,840,89,46,PRESCOTT,1,46.237339,-118.36824,89,9,1,1,89046,Point
873,5325,840,89,47,SPRING LAKE,1,46.334082,-117.677025,65,10,1,1,89047,Point
874,5327,840,89,49,CARLTON,1,48.251676,-120.158364,67,9,1,1,89049,Point
875,5328,840,89,50,NIGHTHAWK,1,48.755641,-119.66333,85,9,1,1,89050,Point
876,5329,840,89,51,CURLEW,1,48.849951,-118.967018,64,10,1,1,89051,Point
877,5330,840,89,52,SULLIVAN LK,0,48.848414,-117.187859,64,10,1,1,89052,Point
878,5332,840,89,54,CEDAR FALLS,0,47.455191,-121.757019,67,5,1,1,89054,Point
879,5333,840,89,55,BLEWETT PASS,1,47.243387,-120.69719,85,9,1,1,89055,Point
880,5334,840,89,56,HARTLINE,1,47.844462,-119.017609,89,9,1,1,89056,Point
881,5335,840,89,57,KEYSTONE,1,47.134953,-118.163544,89,9,1,1,89057,Point
882,5336,840,89,58,MALDEN,1,47.174104,-117.379875,65,9,1,1,89058,Point
883,5338,840,89,60,MT ST HELENS,1,46.2536,-121.98085,67,5,1,1,89060,Point
884,5339,840,89,61,MT RAINIER,1,46.741243,-121.918297,67,5,1,1,89061,Point
885,5340,840,89,62,HARWOOD,0,46.550911,-120.820824,89,9,1,1,89062,Point
886,5341,840,89,63,POTHOLES,1,46.970052,-119.345124,89,9,1,1,89063,Point
887,5342,840,89,64,HATTON,0,46.822009,-118.805901,89,9,1,1,89064,Point
888,5343,840,89,65,POMEROY,1,46.467017,-117.588967,65,9,1,1,89065,Point
889,5345,840,89,67,SUIATTLE RIV,1,48.235635,-121.179184,67,9,1,1,89067,Point
890,5346,840,89,68,MAZAMA,1,48.532276,-120.303368,67,9,1,1,89068,Point
891,5347,840,89,69,OMAK CREEK,1,48.22416,-119.048386,64,10,1,1,89069,Point
892,5348,840,89,70,LAURIER,1,48.675691,-118.116127,64,10,1,1,89070,Point
893,5349,840,89,71,NORTHPORT,1,48.850476,-117.882992,64,10,1,1,89071,Point
894,5351,840,89,73,INDEX,0,47.93445,-121.246864,67,9,1,1,89073,Point
895,5352,840,89,74,L. WENATCHEE,1,47.744387,-120.667793,67,9,1,1,89074,Point
896,5353,840,89,75,MOSES COULEE,1,47.664005,-119.63089,89,9,1,1,89075,Point
897,5354,840,89,76,ODESSA,1,47.130534,-118.686577,89,9,1,1,89076,Point
898,5355,840,89,77,DEER PARK,1,47.887385,-117.989975,64,10,1,1,89077,Point
899,5357,840,89,79,RAINIER,1,46.806648,-122.415787,93,5,1,1,89079,Point
900,5358,840,89,80,MT. ADAMS,1,46.084484,-121.812927,67,5,1,1,89080,Point
901,5359,840,89,81,YAKIMA,1,46.664735,-120.487961,89,9,1,1,89081,Point
902,5360,840,89,82,MESA,0,46.766552,-119.076246,89,9,1,1,89082,Point
903,5361,840,89,83,WALLA WALLA,0,46.288458,-118.487267,89,9,1,1,89083,Point
904,5362,840,89,84,CLOVERLAND,1,46.273881,-117.293075,65,10,1,1,89084,Point
905,5364,840,89,86,Greenwater,1,47.164403,-121.750437,67,5,1,1,89086,Point
906,5367,840,89,113,LAKE CHELAN,1,47.750677,-120.355423,85,9,1,1,89113,Point
907,5370,840,89,145,COLUMBIA NWR,1,46.912533,-119.368133,89,9,1,1,89145,Point
908,5371,840,89,147,ECKLER MTN.,0,46.2471,-117.760544,65,10,1,1,89147,Point
909,5372,840,89,152,SULLIVAN LAKE 2,1,48.847414,-117.188225,64,10,1,1,89152,Point
910,5373,840,89,162,POMONA,0,46.7887,-120.636124,89,9,1,1,89162,Point
911,5374,840,89,164,SULPHUR,1,46.823294,-118.650794,89,9,1,1,89164,Point
912,5375,840,89,173,INDEX 2,1,47.665073,-121.288281,67,9,1,1,89173,Point
913,5376,840,89,182,Scootney Reservoir,1,46.766552,-119.04624,89,9,1,1,89182,Point
914,5377,840,89,183,WAITSBURG,1,46.264537,-118.14486,65,9,1,1,89183,Point
915,5379,840,89,262,SELAH,1,46.912395,-120.567657,89,9,1,1,89262,Point
916,5380,840,89,900,HANFORD SITE,0,46.687064,-119.507614,89,9,1,2,89900,Point
917,5381,840,89,901,ARID LAND ER,0,46.368452,-119.447716,89,9,1,2,89901,Point
918,5383,840,89,903,NO CASCADES,1,48.700335,-121.205154,67,9,1,2,89903,Point
919,5386,840,89,906,TURNBULL NWR,1,47.405063,-117.520515,65,9,1,2,89906,Point
920,5388,840,89,908,L PEND O NWR,1,48.455211,-117.55513,64,10,1,2,89908,Point
921,5389,840,89,909,E. MT. ADAMS,1,46.049525,-121.501525,67,9,1,2,89909,Point
922,5391,840,89,950,RICHLAND,1,46.371587,-119.446026,89,9,1,2,89950,Point
923,5392,840,89,951,HORN RAPIDS,1,46.391568,-119.410994,89,9,1,2,89951,Point
924,5555,840,92,1,NE ENTRANCE,1,44.916007,-110.415665,64,10,1,1,92001,Point
925,5556,840,92,2,CODY,1,44.466824,-109.134408,86,10,1,1,92002,Point
926,5557,840,92,3,OTTO,1,44.374958,-108.142738,86,10,1,1,92003,Point
927,5558,840,92,4,BASIN,1,44.408,-107.98899,86,10,1,1,92004,Point
928,5559,840,92,5,WYARNO,1,44.789033,-106.718452,39,17,1,1,92005,Point
929,5560,840,92,6,CLARKELEN,0,44.204584,-105.713951,39,17,1,1,92006,Point
930,5561,840,92,7,SUNDANCE,1,44.425217,-104.420646,61,17,1,1,92007,Point
931,5562,840,92,8,COLTER BAY,0,43.995243,-110.672898,64,10,1,1,92008,Point
932,5563,840,92,9,DUBOIS,1,43.417424,-109.443115,86,10,1,1,92009,Point
933,5564,840,92,10,MIDVALE,1,43.20066,-108.401886,86,10,1,1,92010,Point
934,5565,840,92,11,NOWOOD,1,43.596881,-107.430084,86,10,1,1,92011,Point
935,5566,840,92,12,NATRONA,0,43.286783,-106.819412,39,17,1,1,92012,Point
936,5567,840,92,13,BILL,1,43.397682,-105.393693,39,17,1,1,92013,Point
937,5568,840,92,14,REDBIRD,0,43.337076,-104.459946,39,17,1,1,92014,Point
938,5569,840,92,15,FONTENELLE,1,42.07376,-110.160858,86,10,1,1,92015,Point
939,5570,840,92,16,ELK HORN,1,42.426846,-109.268204,86,10,1,1,92016,Point
940,5571,840,92,17,BEAR CREEK,1,42.179458,-108.622559,86,10,1,1,92017,Point
941,5572,840,92,18,ERVAY,1,42.87753,-107.443657,86,10,1,1,92018,Point
942,5573,840,92,19,BROOKHURST,1,42.869169,-106.120003,39,16,1,1,92019,Point
943,5574,840,92,20,GLENROCK,0,42.783333,-105.85,39,17,1,1,92020,Point
944,5575,840,92,21,DWYER,1,42.205603,-104.967498,39,17,1,1,92021,Point
945,5576,840,92,22,CUMBERLAND,1,41.27287,-110.764679,86,10,1,1,92022,Point
946,5577,840,92,23,MCKINNON,0,41.15,-109.816667,86,10,1,1,92023,Point
947,5578,840,92,24,PATRICK DRAW,0,41.702569,-108.429824,86,10,1,1,92024,Point
948,5579,840,92,25,SAVERY,1,41.00372,-107.361206,84,10,1,1,92025,Point
949,5580,840,92,26,RIVERSIDE,1,41.20011,-106.653198,86,10,1,1,92026,Point
950,5581,840,92,27,BUFORD,1,41.191181,-105.295738,87,16,1,1,92027,Point
951,5582,840,92,28,YODER,1,42.016773,-104.286201,36,18,1,1,92028,Point
952,5583,840,92,29,CANYON,0,44.747766,-110.713784,64,10,1,1,92029,Point
953,5584,840,92,30,MAMMOTH,1,44.880808,-110.734254,64,10,1,1,92030,Point
954,5585,840,92,31,WEST THUMB,0,44.316667,-110.616667,64,10,1,1,92031,Point
955,5586,840,92,32,HUNTER PEAK,1,44.930436,-109.726082,64,10,1,1,92032,Point
956,5587,840,92,33,CLARK,1,44.842429,-109.148293,86,10,1,1,92033,Point
957,5588,840,92,35,FRANNIE,1,44.969271,-108.6213,86,10,1,1,92035,Point
958,5589,840,92,36,MOOSE,1,43.652455,-110.711067,64,10,1,1,92036,Point
959,5590,840,92,37,LOVELL,1,44.840623,-108.351715,86,10,1,1,92037,Point
960,5591,840,92,38,MEETEETSE,1,44.09196,-108.700013,64,10,1,1,92038,Point
961,5592,840,92,39,TENSLEEP,1,44.03422,-107.45134,86,10,1,1,92039,Point
962,5593,840,92,40,DAYTON,1,44.958291,-107.272399,39,17,1,1,92040,Point
963,5594,840,92,41,BALD MTN,1,44.799084,-107.962043,64,10,1,1,92041,Point
964,5595,840,92,42,CRAZY WOMAN,1,44.315734,-106.938079,64,10,1,1,92042,Point
965,5596,840,92,43,SCHOONOVER,1,44.216734,-106.352005,39,17,1,1,92043,Point
966,5597,840,92,44,ARVADA,1,44.65168,-106.130394,39,17,1,1,92044,Point
967,5598,840,92,45,RECLUSE,1,44.949758,-105.662308,39,17,1,1,92045,Point
968,5599,840,92,46,SODA WELL,1,44.657104,-105.34726,39,17,1,1,92046,Point
969,5600,840,92,47,PINEY,0,44.105568,-105.1624,39,17,1,1,92047,Point
970,5601,840,92,48,SEELY,0,44.792116,-104.619179,39,17,1,1,92048,Point
971,5602,840,92,49,UPTON,1,44.048177,-104.729454,39,17,1,1,92049,Point
972,5603,840,92,50,MOSKEE,0,44.243286,-104.135445,61,17,1,1,92050,Point
973,5604,840,92,51,ALPINE,1,43.175199,-111.031517,64,10,1,1,92051,Point
974,5605,840,92,52,WILSON,1,43.544073,-110.856941,64,10,1,1,92052,Point
975,5606,840,92,53,HORSE CREEK,1,43.533717,-109.633614,64,10,1,1,92053,Point
976,5607,840,92,55,CROWHEART,1,43.270424,-109.031434,86,10,1,1,92055,Point
977,5608,840,92,56,ETHETE,1,43.025178,-108.774231,86,10,1,1,92056,Point
978,5609,840,92,57,ANCHOR,1,43.707861,-108.715019,86,10,1,1,92057,Point
979,5610,840,92,58,GEBO,1,43.799719,-108.215706,86,10,1,1,92058,Point
980,5611,840,92,59,ARMINTO,1,43.105247,-107.021685,86,10,1,1,92059,Point
981,5612,840,92,60,LYSITE,1,43.269615,-107.689536,86,10,1,1,92060,Point
982,5613,840,92,61,WORLAND,1,43.978837,-107.968247,86,10,1,1,92061,Point
983,5614,840,92,62,TEAPOT DOME,0,43.322561,-106.240891,39,17,1,1,92062,Point
984,5615,840,92,63,MAYOWORTH,1,43.838324,-106.83887,39,17,1,1,92063,Point
985,5616,840,92,64,SUSSEX,1,43.649551,-106.19806,39,17,1,1,92064,Point
986,5617,840,92,65,HARLAND FLAT,1,43.281467,-105.704422,39,17,1,1,92065,Point
987,5618,840,92,66,PINE TREE,0,43.749637,-105.785683,39,17,1,1,92066,Point
988,5619,840,92,67,HIGHLIGHT,0,43.643001,-105.408943,39,17,1,1,92067,Point
989,5620,840,92,68,RIVERVIEW,1,43.407874,-104.200356,39,17,1,1,92068,Point
990,5621,840,92,69,NEWCASTLE,1,43.85036,-104.24643,39,17,1,1,92069,Point
991,5622,840,92,70,RAVEN,1,43.943732,-104.913185,39,17,1,1,92070,Point
992,5623,840,92,71,SODA LAKE,1,42.768843,-110.496315,64,10,1,1,92071,Point
993,5624,840,92,72,BUCKSKIN MTN,1,42.489121,-110.837166,64,10,1,1,92072,Point
994,5625,840,92,73,DANIEL,0,42.883205,-110.000908,86,10,1,1,92073,Point
995,5626,840,92,74,BOULDER,1,42.833687,-109.672821,86,10,1,1,92074,Point
996,5627,840,92,75,BIG SANDY,1,42.691684,-109.520569,86,10,1,1,92075,Point
997,5628,840,92,76,FARSON,1,42.097049,-109.476975,86,10,1,1,92076,Point
998,5629,840,92,77,FIDDLER LK,1,42.737071,-108.839294,64,10,1,1,92077,Point
999,5630,840,92,78,SAND DRAW,1,42.637394,-108.193726,86,10,1,1,92078,Point
1000,5631,840,92,79,SWEETWATER,1,42.314963,-108.204071,86,10,1,1,92079,Point
1001,5632,840,92,80,GAS HILLS,0,42.872871,-107.524437,86,10,1,1,92080,Point
1002,5633,840,92,81,BAIROIL,1,42.231868,-107.691071,86,10,1,1,92081,Point
1003,5634,840,92,82,LAMONT,1,42.16221,-107.435317,86,10,1,1,92082,Point
1004,5635,840,92,83,PATHFINDER,1,42.566446,-106.990426,86,10,1,1,92083,Point
1005,5636,840,92,84,LEO,1,42.248935,-106.568817,86,10,1,1,92084,Point
1006,5637,840,92,85,SHIRLEY,1,42.240998,-106.413086,86,10,1,1,92085,Point
1007,5638,840,92,86,WARBONNET,1,42.436308,-105.888939,62,16,1,1,92086,Point
1008,5639,840,92,87,FLETCHER PK,1,42.216923,-105.29734,62,16,1,1,92087,Point
1009,5640,840,92,88,SHAWNEE,1,42.73286,-105.009503,39,17,1,1,92088,Point
1010,5641,840,92,89,MEADOWDALE,1,42.551106,-104.882584,39,17,1,1,92089,Point
1011,5642,840,92,90,LUSK,1,42.828263,-104.41854,36,17,1,1,92090,Point
1012,5643,840,92,91,LINGLE,1,42.132584,-104.45507,36,18,1,1,92091,Point
1013,5644,840,92,92,DIAMONDVILLE,0,41.772363,-110.5392,86,10,1,1,92092,Point
1014,5645,840,92,93,MTN VIEW,1,41.265669,-110.263694,86,10,1,1,92093,Point
1015,5646,840,92,95,GREEN RIVER,0,41.655131,-109.658638,86,10,1,1,92095,Point
1016,5647,840,92,96,RELIANCE,1,41.657303,-109.224754,86,10,1,1,92096,Point
1017,5648,840,92,97,ROCK SPRINGS,1,41.569733,-109.183578,84,10,1,1,92097,Point
1018,5649,840,92,98,BLACK ROCK,0,41.889976,-108.840195,86,10,1,1,92098,Point
1019,5650,840,92,99,KAYCEE,1,43.707333,-106.639009,39,17,1,1,92099,Point
1020,5651,840,92,101,WAMSUTTER,1,41.670462,-107.970886,86,10,1,1,92101,Point
1021,5652,840,92,102,RAWLINS,0,41.734965,-107.265641,86,10,1,1,92102,Point
1022,5653,840,92,103,BAGGS,1,41.128819,-107.648323,86,10,1,1,92103,Point
1023,5654,840,92,104,WALCOTT,1,41.685196,-106.3899,86,10,1,1,92104,Point
1024,5655,840,92,105,FOX PARK,1,41.061271,-106.146302,62,16,1,1,92105,Point
1025,5656,840,92,106,RYAN PARK,1,41.323864,-106.504394,62,16,1,1,92106,Point
1026,5657,840,92,107,SYBILLE CYN,1,41.778263,-105.341797,87,16,1,1,92107,Point
1027,5658,840,92,108,ROCK RIVER,1,41.995653,-105.551087,86,10,1,1,92108,Point
1028,5659,840,92,109,HARMONY,1,41.154087,-105.951347,86,10,1,1,92109,Point
1029,5660,840,92,110,CHEYENNE,1,41.221451,-104.905075,36,18,1,1,92110,Point
1030,5661,840,92,111,CHUGWATER,1,41.756369,-104.821915,36,18,1,1,92111,Point
1031,5662,840,92,112,PINE BLUFF,1,41.215331,-104.119301,36,18,1,1,92112,Point
1032,5663,840,92,120,WELCH,1,42.837253,-105.811225,39,17,1,1,92120,Point
1033,5664,840,92,123,FLAMIN GORGE,1,41.342604,-109.583862,86,10,1,1,92123,Point
1034,5665,840,92,124,Patrick Draw 2,0,41.702569,-108.42982,86,10,1,1,92124,Point
1035,5666,840,92,147,ROZET,1,44.249983,-105.17511,39,17,1,1,92147,Point
1036,5667,840,92,148,SEELY 2,1,44.968337,-104.368267,39,17,1,1,92148,Point
1037,5668,840,92,150,GVNT VALLEY,1,44.514016,-104.250496,61,17,1,1,92150,Point
1038,5669,840,92,166,SAVAGETON,1,43.61757,-105.785916,39,17,1,1,92166,Point
1039,5670,840,92,167,Thunder Basin,1,43.386764,-105.11005,39,17,1,1,92167,Point
1040,5671,840,92,173,RYEGRASS,1,42.830201,-110.421448,86,10,1,1,92173,Point
1041,5672,840,92,180,GAS HILLS 2,1,42.808569,-107.62286,86,10,1,1,92180,Point
1042,5673,840,92,192,CARTER,0,41.58772,-110.580596,86,10,1,1,92192,Point
1043,5674,840,92,195,SEEDSKADEE,1,41.780985,-109.762467,86,10,1,1,92195,Point
1044,5675,840,92,198,Black Rock 2,1,41.889976,-108.84019,86,10,1,1,92198,Point
1045,5676,840,92,202,RAWLINS 2,1,41.741707,-107.264317,86,10,1,1,92202,Point
1046,5677,840,92,206,CABALLA CRK,1,44.204561,-105.713814,39,17,1,1,92206,Point
1047,5678,840,92,208,MORAN,0,43.986705,-110.666389,64,10,1,1,92208,Point
1048,5679,840,92,212,BUCKNUM,1,43.373522,-106.865425,39,17,1,1,92212,Point
1049,5680,840,92,214,HAMPSHIRE,1,43.759599,-104.551529,39,17,1,1,92214,Point
1050,5681,840,92,224,Patrick Draw 3,0,41.702569,-108.42982,86,10,1,1,92224,Point
1051,5682,840,92,250,MOSKEE 2,1,44.269461,-104.175221,61,17,1,1,92250,Point
1052,5683,840,92,292,CARTER 2,1,41.58772,-110.580595,86,10,1,1,92292,Point
1053,5684,840,92,308,COLTER BAY 2,1,43.995243,-110.672897,64,10,1,1,92308,Point
1054,5685,840,92,324,Patrick Draw 4,0,41.702569,-108.42982,86,10,1,1,92324,Point
1055,5686,840,92,424,Patrick Draw 5,0,41.702569,-108.42982,86,10,1,1,92424,Point
1056,5687,840,92,524,Patrick Draw 6,1,41.702569,-108.42982,86,10,1,1,92524,Point
1057,5688,840,92,900,HAYDEN VAL,0,44.666667,-110.666667,64,10,1,2,92900,Point
1058,5689,840,92,901,YELLOWSTONE,1,44.771872,-110.457771,64,10,1,2,92901,Point
1059,5690,840,92,902,PRIOR FLATS,1,42.241635,-106.584487,86,10,1,2,92902,Point
